% program   : RTKLIB ver.2.4.2
% inp file  : /xikun_ws/GLIO_latest_ws/src/GLIO/GraphGNSSLibV1.1/global_fusion/dataset/urbannavWhampoa/20210521.medium-urban.whampoa.ublox.f9p.obs
% inp file  : /xikun_ws/GLIO_latest_ws/src/GLIO/GraphGNSSLibV1.1/global_fusion/dataset/urbannavWhampoa/hksc1410.21o
% inp file  : /xikun_ws/GLIO_latest_ws/src/GLIO/GraphGNSSLibV1.1/global_fusion/dataset/urbannavWhampoa/hksc141g.nav
% obs start : 2021/05/21 06:41:54.0 GPST (week2158 456114.0s)
% obs end   : 2021/05/21 06:54:39.0 GPST (week2158 456879.0s)
% pos mode  : kinematic
% freqs     : L1
% solution  : forward
% elev mask : 15.0 deg
% dynamics  : off
% tidecorr  : on
% ionos opt : broadcast
% tropo opt : saastamoinen
% ephemeris : broadcast
% navi sys  : gps glonass galileo qzss sbas
% amb res   : continuous
% amb glo   : on
% val thres : 3.0
% antenna1  :                       ( 0.0000  0.0000  0.0000)
% antenna2  :                       ( 0.0000  0.0000  0.0000)
% ref pos   : 22.322172082, 114.141187963,   20.2469
%
% (lat/lon/height=WGS84/ellipsoidal,Q=1:fix,2:float,3:sbas,4:dgps,5:single,6:ppp,ns=# of satellites)
%  GPST        , latitude(deg),longitude(deg), height(m),  Q, ns,  sdn(m),  sde(m),  sdu(m), sdne(m), sdeu(m), sdun(m),age(s), ratio
2158,456114.000,  22.305916153, 114.188205364,   -0.5197,  2, 11,  1.5696,  0.9628,  3.5042,  0.9067, -0.5086, -0.8467, -5.99,   1.0
2158,456115.000,  22.305915928, 114.188205437,   -0.4514,  2, 11,  1.1140,  0.6841,  2.5028,  0.6432, -0.3646, -0.6122, -4.99,   1.6
2158,456116.000,  22.305920715, 114.188212090,   -2.7098,  2, 10,  0.8506,  0.4806,  1.8729,  0.4057,  0.3912,  0.3225, -3.99,   1.0
2158,456117.000,  22.305918210, 114.188207977,   -2.7554,  2,  9,  0.7512,  0.4061,  1.5952,  0.3009,  0.4108,  0.3510, -2.99,   1.0
2158,456118.000,  22.305915440, 114.188204311,   -2.6473,  2,  9,  0.6859,  0.3608,  1.4179,  0.2388,  0.3963,  0.3333, -2.00,   1.4
2158,456119.000,  22.305910684, 114.188205512,   -1.7050,  2, 10,  0.6307,  0.3268,  1.1220,  0.2510,  0.2586,  0.3602, -1.00,   1.7
2158,456120.000,  22.305911739, 114.188205013,   -1.6124,  2, 11,  0.5785,  0.3085,  1.0649,  0.2442,  0.2312,  0.3067,  0.00,   1.1
2158,456121.000,  22.305911605, 114.188202559,   -1.5992,  2,  8,  0.5608,  0.3129,  1.0264,  0.2140,  0.1779,  0.2833,  1.00,   1.1
2158,456122.000,  22.305908558, 114.188203491,   -1.8050,  2,  9,  0.5291,  0.2822,  0.9770,  0.2261,  0.1924,  0.2383,  2.01,   1.5
2158,456123.000,  22.305908514, 114.188203246,   -1.7407,  2, 11,  0.4981,  0.2705,  0.9403,  0.2204,  0.1753,  0.2081,  3.01,   1.0
2158,456124.000,  22.305909856, 114.188201560,   -1.2800,  2, 11,  0.4839,  0.2905,  0.8603,  0.1835, -0.0457,  0.2398,  4.01,   1.0
2158,456125.000,  22.305907657, 114.188201641,   -1.5151,  2,  8,  0.4753,  0.2925,  0.8415,  0.1613, -0.0975,  0.2324,  5.01,   1.0
2158,456126.000,  22.305904401, 114.188199351,   -1.0923,  2, 12,  0.4354,  0.2382,  0.7916,  0.1881,  0.1455,  0.1930,  6.01,   1.0
2158,456127.000,  22.305904340, 114.188204810,    2.5101,  2, 13,  0.4122,  0.2213,  0.7434,  0.1737,  0.1294,  0.1896,  7.01,   1.9
2158,456128.000,  22.305904353, 114.188208719,    5.1813,  2, 12,  0.3972,  0.2092,  0.7046,  0.1578,  0.1158,  0.1871,  8.01,   1.2
2158,456129.000,  22.305905568, 114.188212990,    7.1472,  2, 12,  0.3824,  0.2027,  0.6775,  0.1585,  0.0837,  0.1667,  9.01,   1.0
2158,456130.000,  22.305904247, 114.188210977,    7.0948,  2, 12,  0.3668,  0.1935,  0.6590,  0.1493,  0.1039,  0.1706, 10.01,   1.0
2158,456131.000,  22.305902652, 114.188210209,    6.7719,  2,  9,  0.3596,  0.1928,  0.6499,  0.1500,  0.0916,  0.1614, 11.01,   1.1
2158,456132.000,  22.305901104, 114.188208565,    6.7061,  2, 12,  0.3466,  0.1834,  0.6334,  0.1416,  0.1084,  0.1654, 12.01,   1.2
2158,456133.000,  22.305900081, 114.188207357,    6.6169,  2, 12,  0.3355,  0.1776,  0.6199,  0.1358,  0.1144,  0.1666, 13.01,   1.0
2158,456134.000,  22.305899746, 114.188207127,    6.5572,  2,  8,  0.3293,  0.1818,  0.6157,  0.1373,  0.0960,  0.1593, 14.01,   1.0
2158,456135.000,  22.305897916, 114.188205411,    6.6561,  2,  9,  0.3304,  0.1758,  0.6067,  0.1171,  0.1021,  0.1707, 15.01,   1.6
2158,456136.000,  22.305897224, 114.188204160,    6.6711,  2, 12,  0.3131,  0.1685,  0.5936,  0.1226,  0.1126,  0.1620, 16.00,   1.5
2158,456137.000,  22.305896972, 114.188204084,    6.6279,  2,  9,  0.3088,  0.1743,  0.5904,  0.1276,  0.0949,  0.1534, 17.00,   1.6
2158,456138.000,  22.305897661, 114.188203943,    6.2063,  2, 10,  0.3034,  0.1729,  0.5660,  0.1284,  0.0804,  0.1563, 18.00,   1.2
2158,456139.000,  22.305897686, 114.188203751,    6.2010,  2,  9,  0.2989,  0.1721,  0.5620,  0.1283,  0.0764,  0.1516, 19.00,   1.5
2158,456140.000,  22.305896381, 114.188203140,    6.3657,  2, 11,  0.2918,  0.1587,  0.5525,  0.1180,  0.0991,  0.1575, 20.00,   1.2
2158,456141.000,  22.305900154, 114.188205960,    5.8492,  2, 12,  0.2769,  0.1553,  0.5421,  0.1117,  0.1041,  0.1736, 21.00,   1.2
2158,456142.000,  22.305892750, 114.188214516,    5.6684,  2, 11,  0.2744,  0.1520,  0.5246,  0.1093,  0.0975,  0.1732, 22.00,   1.1
2158,456143.000,  22.305919354, 114.188282129,   20.6164,  2,  4,  6.2340,  7.4956, 28.4433,  6.8302, 14.4499, 13.1214, 23.00,   1.0
2158,456144.000,  22.305706817, 114.188085990,   11.1775,  2,  4, 13.8983, 13.7942, 23.8328, 13.8420,-17.0202,-17.2047, 24.00,   1.0
2158,456145.000,  22.305725060, 114.188158199,    6.0451,  2,  4, 13.6230, 13.4668, 23.6465, 13.5417,-17.2801,-17.4422, 25.00,   1.1
2158,456146.000,  22.305684252, 114.188173709,   11.6834,  2,  4, 13.5160, 13.3402, 23.5983, 13.4252,-17.3633,-17.5189, 26.00,   1.0
2158,456147.000,  22.305687887, 114.188247257,    7.2920,  2,  4, 13.4523, 13.2657, 23.5854, 13.3563,-17.4021,-17.5552, 27.00,   1.2
2158,456148.000,  22.305745417, 114.188389579,   -8.6373,  2,  6,  1.3196,  1.4223,  3.2166,  1.3512,  1.7989,  1.6565, 28.00,   1.2
2158,456149.000,  22.305718206, 114.188450836,   -5.7881,  2,  7,  1.1340,  1.2341,  2.8166,  1.1615,  1.6675,  1.5402, 29.00,   2.0
2158,456150.000,  22.305687384, 114.188513150,   -5.2290,  2,  5,  1.0278,  1.1263,  2.5685,  1.0597,  1.5570,  1.4436,  0.00,   1.3
2158,456151.000,  22.305653515, 114.188575135,   -4.0113,  2,  5,  0.9597,  1.0503,  2.3945,  0.9869,  1.4702,  1.3650,  1.00,   1.4
2158,456152.000,  22.305593091, 114.188614208,    2.5128,  5,  3, 19.7631, 20.3416,  9.9741, 20.0495,-14.0871,-13.8884,  2.01,   0.0
2158,456153.000,  22.305552007, 114.188675342,   -4.0897,  5,  3, 20.5837, 21.3985,  5.4508, 20.9863, -9.5467, -9.3831,  3.01,   0.0
2158,456154.000,  22.305519675, 114.188752846,    3.1714,  5,  2, 20.7272, 21.7017, 29.9908, 21.1951,  3.9219, -4.0131,  4.01,   0.0
2158,456155.000,  22.305474914, 114.188823963,    2.0393,  5, 20, 30.0000, 30.0000, 30.0000,  0.0000,  0.0000, -0.0000,  5.01,   0.0
2158,456156.000,  22.305449058, 114.188891074,    0.7465,  5, 20, 30.0000, 30.0000, 30.0000,  0.0000, -0.0000, -0.0000,  6.01,   0.0
2158,456157.000,  22.305402143, 114.188953149,    0.9813,  5, 19, 30.0000, 30.0000, 30.0000, -0.0000,  0.0000,  0.0000,  7.01,   0.0
2158,456158.000,  22.305327599, 114.188999985,    7.8208,  5,  2, 20.7607, 21.7352, 29.9907, 21.1615,  3.9249, -4.0167,  8.01,   0.0
2158,456159.000,  22.305353676, 114.189024366,   21.7738,  5, 17, 30.0000, 30.0000, 30.0000,  0.0000,  0.0000,  0.0000,  9.01,   0.0
2158,456160.000,  22.305305907, 114.189075060,   20.7266,  5, 17, 30.0000, 30.0000, 30.0000,  0.0000,  0.0000, -0.0000, 10.01,   0.0
2158,456161.000,  22.305207787, 114.189178378,   20.8367,  5,  2, 20.7594, 21.7371, 29.9907, 21.1611,  3.9318, -4.0241, 11.01,   0.0
2158,456163.000,  22.304904576, 114.189029101,   84.8185,  2,  4, 13.5903, 13.4197, 24.2238, 13.4674,-16.9229,-17.1216, 13.01,   1.6
2158,456165.000,  22.304848897, 114.189074803,   66.3809,  1,  4, 12.9659, 12.7164, 23.8798, 12.8404,-17.4246,-17.5947, 15.01,  11.4
2158,456166.000,  22.304914380, 114.189172501,   45.2449,  1,  4, 12.9469, 12.6953, 23.9015, 12.8203,-17.4179,-17.5896, 16.00,   4.3
2158,456168.000,  22.305120433, 114.189458616,   14.4054,  5,  2, 20.7282, 21.7174, 29.9905, 21.1862,  3.9531, -4.0466, 18.00,   0.0
2158,456172.000,  22.305094311, 114.189500972,   20.7660,  5, 18, 30.0000, 30.0000, 30.0000,  0.0000,  0.0000,  0.0000, 22.00,   0.0
2158,456180.000,  22.304755304, 114.189603871,   38.5925,  2,  4, 13.3016, 13.0824, 24.5507, 13.1356,-16.8244,-17.0437,  0.00,   1.0
2158,456181.000,  22.305135329, 114.189607298,   35.7682,  2,  4, 16.2143, 14.5928, 22.3603,-12.9839,-17.7063, 17.7292,  1.00,   3.9
2158,456183.000,  22.304827181, 114.189882736,    6.4642,  2,  5,  1.8665,  1.5475,  3.4924,  1.4088,  1.9980,  1.8279,  3.01,   1.5
2158,456185.000,  22.304686549, 114.189881778,   25.4974,  1,  4, 12.5855, 12.2945, 24.2995, 12.4391,-17.2841,-17.4875,  5.01,  18.8
2158,456186.000,  22.304699970, 114.189981405,   15.7017,  1,  4, 12.5667, 12.2736, 24.3198, 12.4193,-17.2766,-17.4817,  6.01,   3.5
2158,456187.000,  22.304838179, 114.190211364,  -21.7164,  2,  7,  5.9486,  6.0859, 12.4667,  5.9876, -8.4078, -8.3161,  7.01,   1.8
2158,456188.000,  22.304720516, 114.190171572,   -5.6077,  2,  7,  4.2991,  4.5176,  9.4158,  4.3752, -6.1768, -6.0280,  8.01,   1.0
2158,456189.000,  22.304657525, 114.190196056,   -2.1124,  2,  7,  2.3122,  2.5612,  2.9060,  2.3848, -2.3821, -2.1826,  9.01,   1.2
2158,456190.000,  22.304588755, 114.190220198,    5.1303,  2,  6,  0.9831,  1.1016,  2.4329,  0.9144,  0.2897, -0.0030, 10.01,   2.0
2158,456191.000,  22.304572035, 114.190305199,   -1.2603,  2,  6,  2.1133,  2.3441,  2.9422,  2.1818, -2.2882, -2.1118, 11.01,   1.5
2158,456192.000,  22.304530445, 114.190369056,   -0.7175,  2,  8,  1.6309,  1.7739,  2.8032,  1.6515, -2.0033, -1.8426, 12.01,   1.4
2158,456193.000,  22.304486222, 114.190427379,   -3.6156,  2,  9,  0.9361,  1.1108,  2.0186,  0.9498, -1.2496, -0.9967, 13.01,   1.0
2158,456194.000,  22.304444567, 114.190488646,   -4.0608,  1,  8,  0.3183,  0.3549,  0.8217,  0.3328, -0.5292, -0.4978, 14.01,   6.2
2158,456195.000,  22.304403199, 114.190541169,   -2.3318,  2,  9,  0.7235,  0.7911,  1.6121,  0.6747, -0.9712, -0.7630, 15.01,   1.0
2158,456196.000,  22.304376141, 114.190597088,   -1.2606,  2,  6,  0.6454,  0.5675,  1.0650,  0.5149, -0.5172, -0.3282, 16.00,   1.3
2158,456197.000,  22.304340659, 114.190631836,   -0.9802,  2,  9,  0.5593,  0.4168,  0.8956,  0.3819, -0.3200, -0.1625, 17.00,   1.0
2158,456198.000,  22.304322701, 114.190667759,   -0.5896,  2,  7,  0.5286,  0.3767,  0.8114,  0.3496, -0.2477,  0.1146, 18.00,   1.0
2158,456199.000,  22.304323424, 114.190714211,   -1.0812,  2,  8,  0.5979,  0.6262,  1.4362,  0.5397, -0.7725, -0.6109, 19.00,   1.0
2158,456200.000,  22.304319193, 114.190735257,    2.0725,  2,  8,  0.5237,  0.4864,  1.2148,  0.4249, -0.5450, -0.4109, 20.00,   1.0
2158,456201.000,  22.304339466, 114.190769769,    1.2441,  2,  8,  0.6422,  0.6626,  1.5212,  0.5934, -0.8592, -0.7367, 21.00,   1.6
2158,456202.000,  22.304368453, 114.190796746,    1.2790,  2, 10,  0.3875,  0.3486,  0.9640,  0.2669, -0.3222,  0.1455, 22.00,   1.0
2158,456203.000,  22.304404359, 114.190822576,    1.7455,  2,  7,  0.3704,  0.3169,  0.9294,  0.2357, -0.3004,  0.1721, 23.00,   2.2
2158,456205.000,  22.304497310, 114.190902035,   10.5026,  5,  2, 14.3668, 26.4021, 29.9438, 19.3692,  5.1142, -6.9537, 25.00,   0.0
2158,456207.000,  22.304598237, 114.190968350,    8.2344,  2,  5,  5.0758, 12.7109, 25.7762,  8.0222, 18.0817, 11.4094, 27.00,   1.3
2158,456208.000,  22.304628163, 114.190946778,   -4.9988,  2,  5,  3.4692,  8.6036, 17.6110,  5.4496, 12.2907,  7.7871, 28.00,   1.4
2158,456209.000,  22.304663721, 114.191086152,   11.0386,  5, 19, 30.0000, 30.0000, 30.0000,  0.0000,  0.0000,  0.0000, 29.00,   0.0
2158,456210.000,  22.304660378, 114.191093672,   11.4329,  5, 16, 30.0000, 30.0000, 30.0000,  0.0000,  0.0000,  0.0000,  0.00,   0.0
2158,456216.000,  22.305020229, 114.191535810,   67.4412,  2,  4,  5.9798, 13.0576, 26.3974,  8.7444, 18.4817, 12.5146,  6.01,   0.0
2158,456217.000,  22.305058869, 114.191523204,   67.1332,  5,  2, 28.1325, 17.6850, 26.3962,-15.8900, 18.5869, 12.1877,  7.01,   0.0
2158,456221.000,  22.304909601, 114.191192922,  -23.8146,  2,  5,  1.1457,  1.6879,  4.6406,  0.9313,  2.1563,  2.1383, 11.01,   0.0
2158,456222.000,  22.304988593, 114.191192467,   -2.7524,  2,  6,  1.8675,  1.2076,  5.0040, -0.2163,  1.1873,  2.8825, 12.01,   5.2
2158,456223.000,  22.305014405, 114.191234271,    7.5965,  2,  6,  1.6839,  1.5284,  6.4277,  1.1319,  2.4710,  2.8538, 13.01,   1.1
2158,456224.000,  22.305005009, 114.191226668,    4.7478,  2,  6,  1.2911,  1.1109,  4.6843,  0.7642,  1.7271,  2.1463, 14.01,   1.4
2158,456226.000,  22.304997701, 114.191217592,    2.4169,  2,  6,  1.0351,  0.8160,  3.6965,  0.4700,  1.2100,  1.6839, 16.00,   1.2
2158,456227.000,  22.305367367, 114.191074927,   86.5606,  1,  4, 12.8794,  4.5385, 26.7120, -7.6453,-11.0100, 18.5480, 17.00,   8.5
2158,456228.000,  22.305253743, 114.191540726,   95.9124,  2,  4,  8.0385,  9.5410, 27.3047,  8.7257, 16.0981, 14.7936, 18.00,   2.4
2158,456229.000,  22.304834513, 114.191061417,   95.4926,  1,  4,  3.6137,  2.6491, 29.6679,  3.0901, -8.8127,-10.3338, 19.00,   5.6
2158,456230.000,  22.304933905, 114.191129501,   28.0191,  1,  5,  2.2538,  1.6821, 18.2815,  1.9403, -5.4540, -6.3826, 20.00,  10.2
2158,456231.000,  22.304964937, 114.191139073,   26.7523,  1,  5,  1.6310,  1.2527, 12.9801,  1.4199, -3.8975, -4.5461, 21.00,   5.9
2158,456232.000,  22.305000136, 114.191136606,   22.1309,  2,  5,  3.8259,  3.9591, 18.5741,  3.8337, -5.9589, -6.6377, 22.00,   1.1
2158,456233.000,  22.305017222, 114.191114602,   37.7135,  2,  5,  3.2321,  3.4918, 13.3697,  3.3141, -4.5127, -4.8678, 23.00,   2.0
2158,456234.000,  22.305090097, 114.191137392,    7.4067,  2,  7,  2.1124,  2.5891,  4.4732,  2.3038,  2.0103,  1.8643, 24.00,   1.1
2158,456235.000,  22.305045227, 114.191056610,   74.3153,  2,  6,  3.3291,  3.2933, 15.3629,  3.2650, -5.8904, -6.3462, 25.00,   1.1
2158,456236.000,  22.305188447, 114.191129379,   20.4035,  2,  4, 11.9339, 11.5943, 25.3678, 11.7525,-16.6552,-16.9704, 26.00,   1.2
2158,456237.000,  22.305080314, 114.190903433,   52.9772,  2,  6,  5.2565,  6.4719, 17.5314,  5.8210,-10.3312, -9.3015, 27.00,   2.4
2158,456238.000,  22.305234959, 114.190997306,   22.8534,  1,  4, 10.0860, 11.6854, 25.7277, 10.8558,-17.3348,-16.1036, 28.00,   6.0
2158,456239.000,  22.305245719, 114.190911691,   24.9230,  2,  4, 10.1974, 11.7934, 25.7825, 10.9584,-17.2581,-16.0211, 29.00,   1.4
2158,456240.000,  22.305178717, 114.190727259,   51.0225,  1,  6,  0.1834,  0.2265,  0.5646,  0.2035, -0.3535, -0.3177,  0.00,   4.4
2158,456241.000,  22.305281612, 114.190761159,   18.5137,  1,  4,  6.3750,  7.8478, 28.2450,  7.0732,-14.8879,-13.4184,  1.00,  52.7
2158,456242.000,  22.305318688, 114.190705928,   27.8762,  2,  7,  3.4551,  4.2177, 10.7699,  3.8051, -6.4800, -5.8520,  2.01,   2.2
2158,456243.000,  22.305436137, 114.190757086,    2.2444,  2,  8,  1.1154,  1.3859,  2.2298,  1.2078, -0.6233, -0.3306,  3.01,   1.4
2158,456244.000,  22.305485382, 114.190719816,    2.0626,  2,  7,  1.0840,  1.3451,  2.2300,  1.1733, -0.7349, -0.5051,  4.01,   1.4
2158,456245.000,  22.305532424, 114.190683167,    1.3567,  2,  6,  0.8084,  0.9842,  1.9415,  0.8457,  0.6085,  0.7399,  5.01,   1.1
2158,456246.000,  22.305595126, 114.190669421,    2.0217,  2,  5,  0.7673,  0.9657,  1.6085,  0.8164,  0.5734,  0.6750,  6.01,   2.1
2158,456247.000,  22.305834358, 114.190868297,   30.8612,  1,  4, 14.4213, 16.0133, 20.8712, 15.1964, 18.2814, 17.3490,  7.01,  71.0
2158,456248.000,  22.305723496, 114.190653649,    2.1865,  2,  6,  0.6522,  0.8156,  1.4159,  0.6802,  0.6230,  0.7040,  8.01,   1.2
2158,456249.000,  22.305779659, 114.190633163,   -3.8109,  2,  4,  0.8510,  0.9326,  3.2324,  0.8420,  1.4674,  1.3283,  9.01,   1.7
2158,456250.000,  22.305867225, 114.190646877,    4.7543,  2,  5,  6.1323,  7.2893, 19.2175,  6.6801, 11.8143, 10.8327, 10.01,   1.2
2158,456251.000,  22.305934481, 114.190628482,   15.7897,  2,  7,  4.5762,  5.4729, 16.1573,  4.9975,  9.3621,  8.5585, 11.01,   1.3
2158,456252.000,  22.306004299, 114.190605016,   11.4391,  2,  5,  6.6795,  6.7792, 10.8206,  6.7202, -6.5177, -6.6765, 12.01,   1.0
2158,456253.000,  22.306064565, 114.190576521,    6.8588,  5,  3, 20.4306, 21.6493, 10.4661, 21.0281,  8.8449,  8.3968, 13.01,   0.0
2158,456254.000,  22.306009955, 114.190431953,    4.4247,  2,  4, 10.8065, 11.1940,  5.6832, 10.9956, -7.7094, -7.5760, 14.01,   1.9
2158,456255.000,  22.306055281, 114.190418101,    4.3213,  5,  3, 18.8083, 20.4570, 11.7235, 19.5620,-15.3029,-14.4984, 15.01,   0.0
2158,456256.000,  22.306050039, 114.190363995,    7.8018,  5,  3, 18.7665, 20.4604, 11.6918, 19.5678,-15.2830,-14.5545, 16.00,   0.0
2158,456257.000,  22.306048132, 114.190335446,    8.8249,  5,  3, 18.7442, 20.4563, 11.5989, 19.5631,-15.3032,-14.5945, 17.00,   0.0
2158,456259.000,  22.306052589, 114.190332239,    7.9435,  2,  4, 12.4239, 12.9013,  6.7166, 12.6581, -9.2454, -9.0682, 19.00,   1.0
2158,456260.000,  22.306010084, 114.190284929,   10.3511,  2,  4, 10.0176, 10.4149,  5.4373, 10.2116, -7.4621, -7.3125, 20.00,   1.2
2158,456261.000,  22.305996470, 114.190269970,   11.0559,  2,  4,  8.6444,  8.9980,  4.7098,  8.8163, -6.4486, -6.3136, 21.00,   1.2
2158,456262.000,  22.305990161, 114.190262970,   11.3664,  2,  4,  7.7357,  8.0616,  4.2302,  7.8935, -5.7807, -5.6546, 22.00,   1.4
2158,456263.000,  22.305985688, 114.190257924,   11.5926,  2,  4,  7.0831,  7.3903,  3.8872,  7.2313, -5.3030, -5.1828, 23.00,   1.3
2158,456264.000,  22.306018080, 114.190294220,    9.5479,  2,  4,  6.5898,  6.8838,  3.6291,  6.7312, -4.9436, -4.8274, 24.00,   1.2
2158,456265.000,  22.306004607, 114.190279176,   10.3553,  2,  4,  6.2040,  6.4884,  3.4282,  6.3404, -4.6638, -4.5503, 25.00,   1.2
2158,456266.000,  22.306001118, 114.190275459,   10.4981,  2,  4,  5.8948,  6.1722,  3.2682,  6.0276, -4.4407, -4.3291, 26.00,   1.0
2158,456267.000,  22.305997735, 114.190271847,   10.6383,  2,  4,  5.6427,  5.9152,  3.1386,  5.7729, -4.2599, -4.1496, 27.00,   1.1
2158,456268.000,  22.306018176, 114.190294950,    9.2790,  2,  4,  5.4346,  5.7036,  3.0324,  5.5629, -4.1116, -4.0020, 28.00,   1.2
2158,456269.000,  22.306035421, 114.190314917,    8.1164,  2,  4,  5.2613,  5.5280,  2.9447,  5.3883, -3.9891, -3.8798, 29.00,   1.6
2158,456270.000,  22.306038493, 114.190318209,    7.9445,  2,  4,  4.5437,  4.7525,  2.5250,  4.6426, -3.4162, -3.3297,  0.00,   2.1
2158,456271.000,  22.306051084, 114.190331936,    7.1235,  2,  4,  4.3612,  4.5643,  2.4288,  4.4572, -3.2827, -3.1980,  1.00,   2.6
2158,456272.000,  22.306057150, 114.190331027,    6.8932,  2,  4,  4.1989,  4.3970,  2.3435,  4.2924, -3.1641, -3.0809,  2.01,   2.2
2158,456273.000,  22.306119230, 114.190378483,    3.1846,  5,  3, 18.6101, 20.4540, 11.6488, 19.5088,-15.4261,-14.7102,  3.01,   0.0
2158,456274.000,  22.306135567, 114.190367830,    2.6662,  5,  3, 18.6032, 20.4541, 11.6589, 19.5053,-15.4333,-14.7145,  4.01,   0.0
2158,456275.000,  22.306356005, 114.190455462,   11.7974,  5,  2, 25.5671, 20.5657, 26.8965, 18.5147,-17.0363, 14.4414,  5.01,   0.0
2158,456276.000,  22.306172908, 114.190335158,    1.8076,  5,  3, 18.5895, 20.4543, 11.6796, 19.4982,-15.4477,-14.7227,  6.01,   0.0
2158,456277.000,  22.306186057, 114.190295455,    2.0440,  5,  3, 18.5827, 20.4544, 11.6898, 19.4947,-15.4548,-14.7269,  7.01,   0.0
2158,456278.000,  22.306257708, 114.190314571,   -1.6238,  5,  3, 18.5758, 20.4544, 11.7001, 19.4912,-15.4620,-14.7310,  8.01,   0.0
2158,456279.000,  22.306306626, 114.190296400,   -3.3311,  5,  3, 18.5690, 20.4545, 11.7104, 19.4876,-15.4691,-14.7351,  9.01,   0.0
2158,456280.000,  22.306390197, 114.190303009,   14.8291,  5,  2, 20.4162, 21.9967, 29.9895, 21.1757, -4.0207,  4.1737, 10.01,   0.0
2158,456281.000,  22.306406295, 114.190229839,   19.4138,  5,  2, 20.4125, 22.0001, 29.9895, 21.1755, -4.0213,  4.1750, 11.01,   0.0
2158,456283.000,  22.306337231, 114.189960907,    3.0907,  2,  6,  3.7397,  3.9083,  4.3691,  3.8159,  3.5541,  3.5351, 13.01,   1.8
2158,456284.000,  22.306463386, 114.190028676,    2.9774,  5, 17, 30.0000, 30.0000, 30.0000, -0.0000,  0.0000,  0.0000, 14.01,   0.0
2158,456286.000,  22.306398770, 114.189730780,    1.0100,  2,  4, 10.0077, 11.6086, 26.6304, 10.6741,-16.5679,-15.1006, 16.00,  47.0
2158,456287.000,  22.306472543, 114.189738224,   -3.9930,  2,  7,  1.3441,  1.4059,  4.4868,  0.8744,  0.5083,  2.0395, 17.00,   8.5
2158,456288.000,  22.306515738, 114.189696753,   -1.2436,  2,  7,  0.8602,  0.6433,  2.8216,  0.3409,  0.4555,  1.3015, 18.00,   0.0
2158,456289.000,  22.306535215, 114.189659354,   -0.4894,  2,  7,  0.6681,  0.4702,  2.1766,  0.1500,  0.2588,  0.9819, 19.00,   0.0
2158,456290.000,  22.306538721, 114.189620005,   -2.1012,  2,  8,  0.6451,  0.4646,  2.1465,  0.2775, -0.3834,  0.6404, 20.00,   1.4
2158,456291.000,  22.306531558, 114.189589721,    3.5338,  2,  6,  1.3608,  1.1644,  5.1431, -0.8255, -1.4020,  2.5661, 21.00,  10.7
2158,456292.000,  22.306521388, 114.189568453,    4.7256,  2,  7,  1.0483,  1.2863,  3.8195,  0.7264, -0.7622,  1.4998, 22.00,   1.0
2158,456293.000,  22.306453876, 114.189580596,   -1.6238,  2,  6,  1.5843,  2.6486,  6.2306, -1.8682, -3.6629,  3.0896, 23.00,   1.0
2158,456294.000,  22.306437185, 114.189502355,    8.5111,  2,  9,  0.7363,  0.9725,  3.0703, -0.3688, -1.0880,  1.2604, 24.00,   1.2
2158,456295.000,  22.306381282, 114.189477481,    4.2006,  2,  6,  0.7974,  1.3165,  2.9252, -0.7217, -1.5391,  1.3024, 25.00,   1.2
2158,456296.000,  22.306345338, 114.189393774,   13.5157,  2,  4,  6.4603, 12.5304, 26.5038, -8.9731,-18.1892, 13.0656, 26.00,   1.1
2158,456297.000,  22.306241380, 114.189364818,  -12.5434,  5, 17, 30.0000, 30.0000, 30.0000,  0.0000,  0.0000,  0.0000, 27.00,   0.0
2158,456298.000,  22.306214084, 114.189352800,   -1.3477,  5,  2, 10.1452, 28.5663, 29.7012, 16.0843, -6.2209, 10.9194, 28.00,   0.0
2158,456299.000,  22.306168456, 114.189267961,   14.2674,  2,  6,  0.9820,  1.5023,  3.7201, -1.0959, -2.1991,  1.8023, 29.00,   1.1
2158,456300.000,  22.306115314, 114.189223617,   15.7167,  2,  6,  0.7663,  1.0676,  2.7935, -0.7849, -1.5659,  1.3459,  0.00,   1.2
2158,456301.000,  22.306053494, 114.189203825,   12.6348,  1,  6,  0.3920,  0.7595,  1.6141, -0.5455, -1.1069,  0.7953,  1.00,   3.7
2158,456302.000,  22.305987296, 114.189200382,   -0.1272,  5,  2, 15.2003, 26.6632, 29.3106, 18.8585, -9.3769, 12.8603,  2.01,   0.0
2158,456303.000,  22.305907611, 114.189181879,  -15.1638,  2,  5,  2.2614,  2.3125, 14.2803, -2.0668, -5.4413,  5.5323,  3.01,   1.3
2158,456304.000,  22.305875370, 114.189169596,  -10.6516,  1,  5,  0.0403,  3.2651,  6.9498,  0.2568, -4.7629, -0.3673,  4.01,   7.0
2158,456305.000,  22.305828959, 114.189090710,    1.0143,  2,  5,  1.2183,  4.2924, 13.3130, -1.6242, -7.3606,  3.4137,  5.01,   1.3
2158,456306.000,  22.305798556, 114.189066358,    2.5633,  5, 17, 30.0000, 30.0000, 30.0000,  0.0000,  0.0000,  0.0000,  6.01,   0.0
2158,456307.000,  22.305915734, 114.189043165,   51.8227,  5, 17, 30.0000, 30.0000, 30.0000, -0.0000,  0.0000, -0.0000,  7.01,   0.0
2158,456308.000,  22.305653780, 114.189064847,   -9.2030,  5, 13, 30.0000, 30.0000, 30.0000,  0.0000,  0.0000,  0.0000,  8.01,   0.0
2158,456309.000,  22.305635109, 114.188941202,  -13.6121,  5,  3,  2.5804, 13.5574, 27.2710,  3.4659,-18.2911,  1.9523,  9.01,   0.0
2158,456310.000,  22.305656610, 114.188975307,    2.6592,  1,  6,  0.0631,  1.1444,  2.4698,  0.0701, -1.6750,  0.0825, 10.01,  13.3
2158,456311.000,  22.305616681, 114.189007811,  -12.0311,  1,  6,  0.0684,  1.3040,  2.8283,  0.0502, -1.9141,  0.1224, 11.01, 124.8
2158,456312.000,  22.305583659, 114.188973213,   -6.8680,  1,  6,  0.0658,  0.9283,  2.0269, -0.0229, -1.3649,  0.1342, 12.01,   5.0
2158,456313.000,  22.305551281, 114.188895882,    8.2188,  2,  8,  0.6840,  0.8254,  3.4916, -0.5540, -1.4851,  1.4190, 13.01,   1.2
2158,456314.000,  22.305506928, 114.188890987,   -0.7360,  2,  8,  0.6402,  1.3821,  4.0647, -0.4192, -2.1714,  1.2617, 14.01,   1.2
2158,456315.000,  22.305464193, 114.188889583,   -1.1660,  2,  9,  0.5570,  0.9385,  2.9939, -0.2766, -1.4677,  1.0307, 15.01,   1.0
2158,456316.000,  22.305423021, 114.188906262,   -0.5462,  2,  7,  0.5466,  0.6861,  2.5489, -0.3179, -1.1208,  1.0209, 16.00,   1.2
2158,456317.000,  22.305389408, 114.188939861,    0.8215,  2, 12,  0.4788,  0.5356,  2.0706, -0.2726, -0.8608,  0.8759, 17.00,   1.3
2158,456318.000,  22.305361841, 114.188980225,    3.0973,  2, 10,  0.4357,  0.4800,  1.7252, -0.2147, -0.7097,  0.7536, 18.00,   2.2
2158,456319.000,  22.305331311, 114.189026436,    3.2395,  2,  8,  0.4171,  0.4468,  1.6316, -0.2064, -0.6586,  0.7194, 19.00,   1.1
2158,456320.000,  22.305300034, 114.189073223,    3.2518,  2,  5,  0.5036,  0.6192,  1.2529, -0.4100, -0.4413,  0.5533, 20.00,   1.0
2158,456323.000,  22.305132250, 114.189130193,   -1.6555,  1,  5,  3.7452,  1.3258,  4.9177,  2.2216, -2.5304, -4.2845, 23.00,   3.3
2158,456325.000,  22.304929782, 114.189099022,   33.4750,  2,  4, 10.5323,  9.9875, 26.6422, 10.2080,-15.7528,-16.2492, 25.00,   3.8
2158,456332.000,  22.304775854, 114.189556784,   20.5134,  1,  4, 10.0403,  9.4335, 26.6497,  9.7321,-15.8555,-16.3574,  2.01,   3.1
2158,456333.000,  22.304601117, 114.189462398,   67.3368,  2,  4, 10.4067,  9.8458, 26.7372, 10.0732,-15.6667,-16.1812,  3.01,   2.0
2158,456334.000,  22.304609496, 114.189542035,   57.2107,  1,  4, 10.0089,  9.3979, 26.6741,  9.6986,-15.8327,-16.3393,  4.01,   7.8
2158,456335.000,  22.304597536, 114.189586730,   57.0786,  1,  4,  9.9933,  9.3802, 26.6863,  9.6818,-15.8213,-16.3302,  5.01,  33.6
2158,456336.000,  22.304536344, 114.189569401,   71.2491,  2,  4, 10.1379,  9.5388, 26.7282,  9.8088,-15.7396,-16.2540,  6.01,   1.1
2158,456337.000,  22.304525770, 114.189588077,   71.8763,  2,  4, 10.0965,  9.4923, 26.7352,  9.7683,-15.7400,-16.2561,  7.01,   1.4
2158,456338.000,  22.304769194, 114.189846416,    2.1667,  2,  6,  7.1839,  6.8793, 20.0500,  7.0050,-11.5277,-11.8122,  8.01,   1.1
2158,456339.000,  22.304769064, 114.189851479,    4.1799,  1,  6,  0.3102,  0.3207,  1.0095,  0.3135, -0.5542, -0.5487,  9.01,   5.1
2158,456340.000,  22.304811276, 114.189891170,   -7.0959,  2,  7,  3.6528,  3.6758, 10.5671,  3.6308, -5.9254, -5.9494, 10.01,   1.4
2158,456341.000,  22.304823833, 114.189903029,   -9.7190,  2,  7,  3.0245,  3.1169,  8.8083,  3.0366, -4.9170, -4.8826, 11.01,   1.1
2158,456342.000,  22.304822113, 114.189901275,   -7.6755,  2,  6,  2.8366,  2.9262,  8.3575,  2.8481, -4.6347, -4.6057, 12.01,   1.0
2158,456343.000,  22.304826934, 114.189906916,   -6.8623,  1,  6,  0.4330,  0.4466,  1.4132,  0.4371, -0.7747, -0.7678, 13.01,   3.3
2158,456344.000,  22.304818990, 114.189897226,   -3.8267,  2,  6,  2.5323,  2.6189,  7.5780,  2.5438, -4.1633, -4.1400, 14.01,   1.8
2158,456345.000,  22.304818453, 114.189896200,   -2.8058,  2,  6,  2.4185,  2.5032,  7.2834,  2.4298, -3.9870, -3.9662, 15.01,   1.6
2158,456346.000,  22.304820074, 114.189897683,   -2.7522,  2,  6,  2.3226,  2.4053,  7.0347,  2.3336, -3.8388, -3.8202, 16.00,   1.1
2158,456347.000,  22.304817665, 114.189895492,   -1.8737,  2,  6,  2.2412,  2.3218,  6.8232,  2.2518, -3.7133, -3.6967, 17.00,   1.2
2158,456348.000,  22.304818694, 114.189896952,   -2.3082,  2,  6,  2.1715,  2.2500,  6.6429,  2.1818, -3.6066, -3.5917, 18.00,   1.8
2158,456349.000,  22.304817687, 114.189895980,   -1.7809,  2,  6,  2.1117,  2.1881,  6.4890,  2.1216, -3.5156, -3.5024, 19.00,   2.3
2158,456350.000,  22.304817499, 114.189896159,   -1.9037,  2,  6,  2.0603,  2.1347,  6.3580,  2.0697, -3.4382, -3.4264, 20.00,   2.7
2158,456351.000,  22.304819920, 114.189898792,   -2.9002,  2,  6,  2.0161,  2.0885,  6.2468,  2.0251, -3.3725, -3.3621, 21.00,   2.8
2158,456352.000,  22.304821105, 114.189900312,   -3.7172,  2,  6,  1.9782,  2.0487,  6.1533,  1.9869, -3.3171, -3.3079, 22.00,   1.6
2158,456353.000,  22.304792156, 114.189869696,    9.8735,  2,  7,  1.6169,  1.7016,  3.7806,  1.6283, -2.3601, -2.3445, 23.00,   1.6
2158,456354.000,  22.304798995, 114.189877084,    7.5527,  1,  6,  0.8007,  0.8197,  2.6441,  0.8055, -1.4388, -1.4307, 24.00,   3.6
2158,456355.000,  22.304794028, 114.189880006,    6.9347,  2,  6,  1.7181,  1.7933,  4.6771,  1.7283, -2.7063, -2.6932, 25.00,   1.6
2158,456356.000,  22.304772589, 114.189883102,   11.3605,  2,  7,  1.4608,  1.5453,  3.1303,  1.4721, -2.0569, -2.0413, 26.00,   1.1
2158,456357.000,  22.304758236, 114.189911620,   11.3870,  1,  6,  0.4793,  0.5130,  0.8148,  0.4886, -0.6351, -0.6233, 27.00,   3.3
2158,456358.000,  22.304737133, 114.189950169,   10.7445,  2,  8,  1.3665,  1.4590,  2.6976,  1.3827, -1.8752, -1.8538, 28.00,   1.1
2158,456359.000,  22.304710495, 114.189998798,    9.6151,  2,  7,  1.3890,  1.4987,  3.1849,  1.4156, -2.0405, -1.9938, 29.00,   1.1
2158,456360.000,  22.304686350, 114.190061963,    7.1345,  2,  7,  0.8234,  0.9629,  1.8447,  0.8549, -1.1407, -1.0955,  0.00,   1.7
2158,456361.000,  22.304648952, 114.190119657,    7.1128,  2,  7,  0.6653,  0.8306,  1.5194,  0.7048, -0.8971, -0.8367,  1.00,   1.8
2158,456362.000,  22.304614321, 114.190189044,    5.6530,  2,  7,  0.4858,  0.6347,  1.2304,  0.5045, -0.5653, -0.5400,  2.01,   1.4
2158,456363.000,  22.304567795, 114.190247568,    6.1613,  2,  7,  0.5002,  0.6204,  1.3409,  0.5081, -0.6446, -0.6223,  3.01,   2.2
2158,456364.000,  22.304523583, 114.190311175,    5.8816,  2,  8,  0.4236,  0.5489,  1.1433,  0.4311, -0.5133, -0.4694,  4.01,   1.1
2158,456365.000,  22.304484405, 114.190382908,    4.7288,  2, 10,  0.4029,  0.4718,  1.1529,  0.3828, -0.4904, -0.4765,  5.01,   1.0
2158,456366.000,  22.304447137, 114.190452747,    3.7678,  2, 10,  0.3746,  0.4148,  1.0479,  0.3394, -0.4297, -0.4212,  6.01,   1.0
2158,456367.000,  22.304413039, 114.190516845,    2.7805,  2, 11,  0.3547,  0.3749,  0.9809,  0.3092, -0.3910, -0.3863,  7.01,   1.1
2158,456368.000,  22.304379617, 114.190570725,    2.2472,  2,  8,  0.3787,  0.3884,  1.1518,  0.3332, -0.4952, -0.4911,  8.01,   1.3
2158,456369.000,  22.304351838, 114.190620053,    2.1680,  2,  9,  0.3420,  0.3447,  0.9185,  0.2890, -0.3668, -0.3607,  9.01,   1.1
2158,456370.000,  22.304333658, 114.190665317,    2.1446,  2,  8,  0.4081,  0.4057,  1.0140,  0.3645, -0.4926, -0.4924, 10.01,   1.0
2158,456371.000,  22.304328436, 114.190707782,    2.1111,  2,  8,  0.3693,  0.3617,  0.9335,  0.3207, -0.3958, -0.4171, 11.01,   1.0
2158,456372.000,  22.304338420, 114.190743074,    2.6157,  2,  9,  0.3521,  0.3534,  0.9012,  0.3069, -0.4040, -0.3978, 12.01,   1.0
2158,456373.000,  22.304362864, 114.190772970,    2.5434,  2,  9,  0.3111,  0.2980,  0.8553,  0.2516, -0.2917, -0.3098, 13.01,   1.0
2158,456374.000,  22.304395711, 114.190797929,    2.3274,  2,  9,  0.2809,  0.2779,  0.7594,  0.2224, -0.2706, -0.2519, 14.01,   1.0
2158,456375.000,  22.304434187, 114.190823878,    2.2896,  2,  6,  0.3903,  0.4668,  1.1037,  0.3843, -0.6182, -0.5204, 15.01,   1.1
2158,456378.000,  22.304598947, 114.190986273,    8.9123,  2,  4,  5.5021, 14.8639, 25.5019,  9.0369, 19.4330, 11.7986, 18.00,   1.0
2158,456382.000,  22.304694344, 114.191147389,   14.0157,  5, 15, 30.0000, 30.0000, 30.0000, -0.0000, -0.0000, -0.0000, 22.00,   0.0
2158,456383.000,  22.304691863, 114.191195497,   20.3989,  5, 16, 30.0000, 30.0000, 30.0000,  0.0000,  0.0000, -0.0000, 23.00,   0.0
2158,456387.000,  22.305005778, 114.191469236,   85.9935,  5,  2, 14.5192, 26.4772, 29.8860, 19.2432,  6.0715, -8.2830, 27.00,   0.0
2158,456388.000,  22.304964368, 114.191369295,   59.3017,  5,  3,  5.2204, 14.6069, 25.9293,  8.4307, 19.1072, 11.5157, 28.00,   0.0
2158,456389.000,  22.304946559, 114.191221291,   31.0903,  2,  5,  3.3229,  5.5161, 14.3556,  4.0782,  8.5465,  6.7587, 29.00,   0.0
2158,456392.000,  22.304886954, 114.191143017,  -26.7358,  2,  5,  3.1241,  4.6550, 12.2442,  3.6794,  7.3869,  6.1212,  2.01,   0.0
2158,456395.000,  22.305017440, 114.191419519,   37.8296,  5,  3,  5.0989, 14.3542, 25.8910,  8.4856, 19.2147, 11.4624,  5.01,   0.0
2158,456397.000,  22.305032007, 114.191381846,   41.0524,  5,  3,  5.1853, 14.6139, 25.9307,  8.4039, 19.1152, 11.4761,  7.01,   0.0
2158,456398.000,  22.305030298, 114.191375673,   40.1040,  5,  3,  5.1200, 14.4590, 25.9073,  8.4521, 19.1770, 11.4563,  8.01,   0.0
2158,456399.000,  22.305010008, 114.191308804,   28.3330,  1,  5,  0.0929,  0.1540,  0.4077,  0.1154,  0.2434,  0.1919,  9.01,   4.8
2158,456400.000,  22.305045676, 114.191422992,   49.0732,  5,  3,  5.0799, 14.3779, 25.8952,  8.4736, 19.2107, 11.4390, 10.01,   0.0
2158,456401.000,  22.305024453, 114.191361926,   37.3496,  5,  3,  5.0700, 14.3645, 25.8932,  8.4751, 19.2171, 11.4333, 11.01,   0.0
2158,456402.000,  22.305048424, 114.191436434,   51.1469,  5,  3,  5.0621, 14.3557, 25.8919,  8.4751, 19.2217, 11.4280, 12.01,   0.0
2158,456403.000,  22.305005792, 114.191309086,   27.2430,  1,  5,  0.1276,  0.2119,  0.5610,  0.1585,  0.3349,  0.2639, 13.01,   3.2
2158,456404.000,  22.305009262, 114.191315359,   29.1582,  2,  5,  1.4102,  2.8264,  6.4249,  1.9034,  4.1261,  2.9625, 14.01,   1.5
2158,456405.000,  22.305051122, 114.191446410,   53.1923,  5,  3,  5.0432, 14.3407, 25.8897,  8.4720, 19.2310, 11.4129, 15.01,   0.0
2158,456406.000,  22.305009087, 114.191319162,   29.1332,  1,  5,  0.1542,  0.2564,  0.6787,  0.1916,  0.4052,  0.3190, 16.00,   5.9
2158,456407.000,  22.305009163, 114.191319109,   29.1905,  1,  5,  0.1630,  0.2713,  0.7181,  0.2027,  0.4287,  0.3374, 17.00,   3.2
2158,456408.000,  22.305004199, 114.191309279,   26.7436,  2,  5,  1.0874,  2.0656,  4.8916,  1.4255,  3.0676,  2.2657, 18.00,   1.4
2158,456409.000,  22.305005555, 114.191312404,   27.4444,  2,  5,  1.0314,  1.9319,  4.6248,  1.3421,  2.8825,  2.1445, 19.00,   1.8
2158,456410.000,  22.305005574, 114.191313207,   27.4964,  2,  5,  0.9845,  1.8237,  4.4042,  1.2738,  2.7316,  2.0440, 20.00,   2.7
2158,456416.000,  22.304978368, 114.191256253,   12.7131,  2,  5,  1.6752,  4.4389,  8.4123,  2.6836,  6.0583,  3.7350, 26.00,   1.0
2158,456417.000,  22.304982123, 114.191270912,   14.9204,  2,  5,  1.6669,  4.4339,  8.3864,  2.6768,  6.0474,  3.7205, 27.00,   1.0
2158,456420.000,  22.304980599, 114.191274003,   14.2684,  2,  5,  1.2346,  3.1624,  6.1287,  1.9319,  4.3479,  2.7309,  0.00,   1.1
2158,456422.000,  22.304980838, 114.191277262,   14.4617,  2,  5,  1.0537,  2.6074,  5.1682,  1.6113,  3.6124,  2.3125,  2.01,   1.1
2158,456423.000,  22.304980670, 114.191278077,   14.4778,  2,  5,  0.9513,  2.2798,  4.6147,  1.4248,  3.1818,  2.0730,  3.01,   1.2
2158,456424.000,  22.304983003, 114.191284881,   15.8230,  2,  5,  0.8816,  2.0566,  4.2387,  1.2981,  2.8890,  1.9101,  4.01,   1.4
2158,456425.000,  22.304983224, 114.191286604,   16.0251,  2,  5,  0.8299,  1.8922,  3.9614,  1.2047,  2.6733,  1.7898,  5.01,   1.2
2158,456426.000,  22.304983601, 114.191288855,   16.3117,  2,  5,  0.7894,  1.7646,  3.7455,  1.1321,  2.5059,  1.6960,  6.01,   1.7
2158,456428.000,  22.304983534, 114.191288172,   15.6549,  2,  5,  0.7511,  1.6589,  3.5533,  1.0693,  2.3640,  1.6105,  8.01,   1.3
2158,456429.000,  22.304990694, 114.191291211,   15.3078,  2,  5,  0.7239,  1.5744,  3.4096,  1.0211,  2.2530,  1.5478,  9.01,   1.6
2158,456432.000,  22.305063708, 114.191326596,   15.4761,  2,  5,  0.6925,  1.4992,  3.2614,  0.9739,  2.1493,  1.4802, 12.01,   2.3
2158,456433.000,  22.305085861, 114.191320721,   12.4028,  1,  6,  0.1238,  0.2085,  0.5525,  0.1546,  0.3294,  0.2577, 13.01,   3.7
2158,456434.000,  22.305119220, 114.191318884,   12.4154,  2,  5,  0.7013,  1.3154,  3.0355,  0.9070,  1.7289,  1.1655, 14.01,   1.2
2158,456435.000,  22.305081041, 114.191241753,   54.9021,  2,  4,  5.5999,  4.6877, 29.1629,  5.0839,-11.3124,-12.6459, 15.01,   1.0
2158,456436.000,  22.305188060, 114.191279410,    8.2000,  2,  5,  3.0904,  2.8936, 14.9631,  2.9404, -6.0009, -6.5659, 16.00,   1.3
2158,456437.000,  22.305204834, 114.191234801,   13.6585,  2,  5,  2.3670,  2.3933, 10.6974,  2.3313, -4.3960, -4.7338, 17.00,   1.4
2158,456438.000,  22.305237349, 114.191187372,    6.5905,  2,  7,  2.0601,  2.1760,  8.6472,  2.0758, -3.7295, -3.9214, 18.00,   1.1
2158,456439.000,  22.305267389, 114.191125783,   -1.5927,  2,  7,  1.8693,  2.0209,  7.5112,  1.9067, -3.3442, -3.4610, 19.00,   1.1
2158,456440.000,  22.305292966, 114.191062902,   -0.7528,  1,  7,  0.3019,  0.3510,  1.0432,  0.3204, -0.5565, -0.5182, 20.00,   3.3
2158,456441.000,  22.305317626, 114.191001217,    3.0878,  1,  6,  1.0667,  1.3371,  4.1246,  1.1926, -2.3351, -2.0848, 21.00,  48.5
2158,456442.000,  22.305351245, 114.190955415,    2.0738,  2,  7,  1.5888,  1.7771,  5.9286,  1.6510, -2.8049, -2.8139, 22.00,   1.8
2158,456443.000,  22.305381145, 114.190900542,    3.1279,  2,  7,  1.5174,  1.7078,  5.5758,  1.5818, -2.6664, -2.6597, 23.00,   1.1
2158,456444.000,  22.305421892, 114.190857357,    1.0373,  2,  8,  0.8080,  1.0800,  2.2475,  0.8995, -0.7411, -0.7803, 24.00,   1.0
2158,456445.000,  22.305453885, 114.190807237,    1.7911,  2,  9,  0.5840,  0.7930,  1.7390,  0.6380, -0.3447, -0.4048, 25.00,   2.8
2158,456446.000,  22.305480809, 114.190766396,    0.7974,  2, 10,  0.4726,  0.6567,  1.3038,  0.5100,  0.1516,  0.1750, 26.00,   1.2
2158,456447.000,  22.305504705, 114.190749352,    2.0307,  2,  9,  0.4750,  0.6699,  1.1353,  0.5201,  0.3086,  0.3339, 27.00,   1.0
2158,456448.000,  22.305517920, 114.190741761,    1.9736,  2, 10,  0.4294,  0.6092,  1.0326,  0.4644,  0.3650,  0.3906, 28.00,   1.0
2158,456449.000,  22.305532149, 114.190738984,    1.9924,  2, 11,  0.4013,  0.5744,  0.9652,  0.4322,  0.3808,  0.4136, 29.00,   1.1
2158,456450.000,  22.305557330, 114.190742060,    2.1919,  2, 11,  0.3527,  0.5114,  0.8763,  0.3800,  0.3501,  0.3789,  0.00,   1.6
2158,456451.000,  22.305564552, 114.190702079,    1.8467,  2, 11,  0.3344,  0.4856,  0.8363,  0.3579,  0.3429,  0.3775,  1.00,   1.1
2158,456452.000,  22.305590513, 114.190691038,    0.7768,  2,  7,  0.3233,  0.4679,  0.8075,  0.3432,  0.3379,  0.3760,  2.01,   1.1
2158,456453.000,  22.305654775, 114.190729138,    4.9057,  1,  5,  0.1497,  0.1777,  0.1903,  0.1620,  0.1794,  0.1674,  3.01,   3.7
2158,456454.000,  22.305687629, 114.190727060,    5.5715,  2,  6,  0.3465,  0.4759,  0.7709,  0.3625,  0.3487,  0.3942,  4.01,   1.4
2158,456455.000,  22.305693817, 114.190701816,    2.8943,  2,  7,  0.2978,  0.4216,  0.7131,  0.3061,  0.2608,  0.3358,  5.01,   2.5
2158,456456.000,  22.305696447, 114.190678380,    1.1625,  2, 12,  0.2661,  0.3756,  0.6752,  0.2639,  0.2084,  0.3058,  6.01,   1.0
2158,456457.000,  22.305708517, 114.190678865,    1.1271,  2, 14,  0.2412,  0.3377,  0.6417,  0.2296,  0.1598,  0.2807,  7.01,   1.3
2158,456458.000,  22.305712580, 114.190676816,    0.9736,  2, 13,  0.2234,  0.3102,  0.6153,  0.2049,  0.1238,  0.2636,  8.01,   1.2
2158,456459.000,  22.305715544, 114.190675447,    0.8631,  2, 14,  0.2091,  0.2885,  0.5918,  0.1854,  0.0905,  0.2495,  9.01,   1.1
2158,456460.000,  22.305722040, 114.190673242,    0.7087,  2, 14,  0.1979,  0.2715,  0.5716,  0.1701,  0.0581,  0.2383, 10.01,   1.0
2158,456461.000,  22.305740467, 114.190668539,    0.6548,  2,  9,  0.1957,  0.2697,  0.5584,  0.1691,  0.0566,  0.2341, 11.01,   1.4
2158,456462.000,  22.305768470, 114.190660865,    0.6676,  2,  9,  0.1923,  0.2649,  0.5459,  0.1658,  0.0513,  0.2296, 12.01,   1.5
2158,456463.000,  22.305805423, 114.190650578,    0.5478,  2,  6,  0.1932,  0.2607,  0.5551,  0.1617,  0.0353,  0.2349, 13.01,   1.2
2158,456464.000,  22.305849774, 114.190637339,    0.4873,  2,  7,  0.2054,  0.2994,  0.5584,  0.1940,  0.1177,  0.2461, 14.01,   2.2
2158,456465.000,  22.305901638, 114.190620752,    2.3074,  2,  6,  0.2369,  0.3565,  0.7974,  0.2465,  0.3483,  0.3565, 15.01,   1.7
2158,456466.000,  22.305956263, 114.190591494,   -0.3050,  2,  7,  2.7420,  2.2625, 13.6592,  2.4826, -5.5055, -6.0915, 16.00,   1.1
2158,456467.000,  22.306003928, 114.190545629,    1.9531,  2,  5,  1.9742,  1.6529,  9.7243,  1.7960, -3.9254, -4.3274, 17.00,   2.5
2158,456472.000,  22.306216907, 114.190208752,   27.1429,  5,  2, 19.7243, 22.6265, 29.9874, 21.1016, -4.1375,  4.4321, 22.00,   0.0
2158,456473.000,  22.306145831, 114.190010909,   10.7074,  2,  5,  4.7213,  5.7997, 16.1146,  5.2003, -7.9471, -6.7838, 23.00,   2.4
2158,456474.000,  22.306297906, 114.190084969,   10.5794,  5,  2, 19.7164, 22.6323, 29.9874, 21.1012, -4.1384,  4.4345, 24.00,   0.0
2158,456475.000,  22.306349747, 114.190046963,    2.0292,  2,  5,  4.1915,  4.7096,  6.8580,  4.4193,  5.1419,  4.9588, 25.00,  32.3
2158,456476.000,  22.306347100, 114.189949391,   -0.6919,  2,  7,  2.0374,  2.2628,  3.2990,  2.1011,  2.2822,  2.3201, 26.00,   2.2
2158,456477.000,  22.306299048, 114.189810547,    2.2328,  2,  4,  8.0504,  8.0432, 27.8040,  8.0355, 14.8526, 14.8905, 27.00,   9.5
2158,456478.000,  22.306381770, 114.189914711,  -25.1161,  5, 15, 30.0000, 30.0000, 30.0000,  0.0000,  0.0000,  0.0000, 28.00,   0.0
2158,456479.000,  22.306382642, 114.189782417,  -12.2029,  5,  2, 28.1120, 15.0398, 28.4548,-16.4891,-15.7067, -9.9774, 29.00,   0.0
2158,456480.000,  22.306455195, 114.189880376,    6.1952,  2,  9,  1.1896,  1.3642,  3.3764,  0.6889, -1.4123,  1.3150,  0.00,  41.6
2158,456481.000,  22.306406159, 114.189868801,  -12.3206,  2, 11,  0.7590,  0.7985,  2.2636,  0.1862, -0.8206,  1.0584,  1.00,   5.8
2158,456482.000,  22.306418019, 114.189860452,  -12.1645,  2, 13,  0.6049,  0.6002,  1.8191, -0.1080, -0.6187,  0.8873,  2.01,   1.2
2158,456483.000,  22.306420890, 114.189857616,  -10.4051,  2, 13,  0.5195,  0.5039,  1.5659, -0.1309, -0.5204,  0.7747,  3.01,   1.2
2158,456484.000,  22.306432074, 114.189847991,   -6.4609,  2, 13,  0.4628,  0.4434,  1.3969, -0.1309, -0.4590,  0.6960,  4.01,   1.0
2158,456485.000,  22.306438625, 114.189844910,   -3.6774,  2, 13,  0.4215,  0.4006,  1.2733, -0.1267, -0.4153,  0.6372,  5.01,   1.0
2158,456486.000,  22.306443738, 114.189843031,   -1.5955,  2, 13,  0.3897,  0.3684,  1.1779, -0.1215, -0.3823,  0.5911,  6.01,   1.1
2158,456487.000,  22.306448575, 114.189842046,    0.4582,  2, 13,  0.3645,  0.3432,  1.1028, -0.1166, -0.3559,  0.5546,  7.01,   1.3
2158,456488.000,  22.306450971, 114.189840474,    1.5469,  2, 13,  0.3434,  0.3223,  1.0391, -0.1121, -0.3349,  0.5233,  8.01,   1.0
2158,456489.000,  22.306452820, 114.189839215,    2.4185,  2, 13,  0.3257,  0.3049,  0.9858, -0.1078, -0.3171,  0.4971,  9.01,   1.6
2158,456490.000,  22.306454235, 114.189838164,    3.1222,  2, 13,  0.3105,  0.2902,  0.9402, -0.1040, -0.3020,  0.4746, 10.01,   1.3
2158,456491.000,  22.306455581, 114.189837371,    3.7351,  2, 13,  0.2974,  0.2774,  0.9008, -0.1005, -0.2889,  0.4551, 11.01,   1.1
2158,456492.000,  22.306455501, 114.189836330,    3.9066,  2, 11,  0.2865,  0.2664,  0.8677, -0.0967, -0.2767,  0.4389, 12.01,   1.2
2158,456493.000,  22.306456145, 114.189836250,    4.1302,  2, 12,  0.2784,  0.2569,  0.8533, -0.0966, -0.2708,  0.4304, 13.01,   1.2
2158,456494.000,  22.306457146, 114.189835798,    4.6216,  2, 13,  0.2686,  0.2480,  0.8208, -0.0934, -0.2607,  0.4146, 14.01,   1.4
2158,456495.000,  22.306457905, 114.189835424,    5.0193,  2, 13,  0.2603,  0.2401,  0.7952, -0.0910, -0.2524,  0.4019, 15.01,   1.4
2158,456496.000,  22.306458646, 114.189835098,    5.3783,  2, 13,  0.2528,  0.2331,  0.7722, -0.0888, -0.2450,  0.3905, 16.00,   1.3
2158,456497.000,  22.306459230, 114.189834766,    5.6721,  2, 13,  0.2461,  0.2266,  0.7514, -0.0868, -0.2382,  0.3802, 17.00,   1.2
2158,456498.000,  22.306459813, 114.189834575,    5.9385,  2, 13,  0.2400,  0.2208,  0.7326, -0.0851, -0.2321,  0.3709, 18.00,   1.2
2158,456499.000,  22.306460449, 114.189834348,    6.2251,  2, 13,  0.2344,  0.2155,  0.7155, -0.0835, -0.2265,  0.3624, 19.00,   1.1
2158,456500.000,  22.306461300, 114.189833888,    6.5307,  2, 13,  0.2293,  0.2106,  0.6999, -0.0820, -0.2215,  0.3547, 20.00,   1.1
2158,456501.000,  22.306463568, 114.189831229,    6.7379,  2, 11,  0.2249,  0.2087,  0.6868, -0.0787, -0.2198,  0.3471, 21.00,   1.0
2158,456502.000,  22.306473854, 114.189818209,    7.3464,  2, 10,  0.2261,  0.2077,  0.6654, -0.0450, -0.2062,  0.3343, 22.00,   1.0
2158,456503.000,  22.306486369, 114.189795890,    7.2281,  2, 12,  0.2242,  0.1945,  0.6635, -0.0443, -0.1785,  0.3410, 23.00,   1.0
2158,456504.000,  22.306506411, 114.189765195,    7.7338,  2,  9,  0.2175,  0.1863,  0.6484, -0.0561, -0.1721,  0.3289, 24.00,   1.1
2158,456505.000,  22.306525430, 114.189737000,    7.1652,  2,  8,  0.2595,  0.1936,  0.7236,  0.0933,  0.0605,  0.3933, 25.00,   1.0
2158,456506.000,  22.306544731, 114.189704462,    6.9496,  2,  9,  0.2148,  0.1713,  0.6247, -0.0381, -0.1332,  0.3200, 26.00,   1.1
2158,456507.000,  22.306558593, 114.189669427,    6.9464,  2,  8,  0.2122,  0.1693,  0.6224, -0.0389, -0.1331,  0.3160, 27.00,   1.7
2158,456508.000,  22.306550301, 114.189622118,    5.1156,  2,  5,  1.7198,  1.8628,  2.8235,  1.7774,  2.2470,  2.1883, 28.00,   1.2
2158,456509.000,  22.306538248, 114.189586809,    5.1169,  2,  5,  1.2080,  1.3714,  1.9032,  1.2688,  1.5442,  1.4928, 29.00,   2.5
2158,456510.000,  22.306518125, 114.189561564,    5.9139,  2,  7,  1.0923,  0.8264,  1.8496,  0.9233,  1.1710,  1.4056,  0.00,   1.0
2158,456511.000,  22.306691288, 114.189644176,   54.5552,  5,  2, 17.0290, 26.0429, 28.8410, 19.1783,-11.0897, 14.2817,  1.00,   0.0
2158,456512.000,  22.306484943, 114.189472306,   50.9011,  2,  4,  3.2136,  2.9201, 29.7087, -2.9010, -8.9760,  9.6996,  2.01,   7.0
2158,456513.000,  22.306424431, 114.189452385,    9.2742,  2,  6,  1.7200,  3.1845,  3.1778, -1.7322, -2.4669,  2.3268,  3.01,   1.0
2158,456514.000,  22.306353145, 114.189424787,   -3.5972,  2,  4,  5.9509,  3.9771, 29.2444,  4.1815,  9.5953, 13.1356,  4.01,   3.0
2158,456515.000,  22.306320721, 114.189438851,    2.8113,  5,  2,  6.3130, 29.9583, 29.3764, -6.8116,  3.1027, 13.3590,  5.01,   0.0
2158,456516.000,  22.306341391, 114.189446147,   13.3488,  5, 19, 30.0000, 30.0000, 30.0000,  0.0000, -0.0000,  0.0000,  6.01,   0.0
2158,456517.000,  22.306266933, 114.189399412,   15.0888,  5,  2, 18.0347, 24.9246, 29.2565,-20.0069, 10.5272, 12.6145,  7.01,   0.0
2158,456518.000,  22.306262452, 114.189345076,   15.3266,  2,  4,  5.1810,  4.6299, 29.2503,  4.6450, 11.1780, 12.2244,  8.01, 118.4
2158,456519.000,  22.306242447, 114.189349734,   20.5959,  2,  6,  3.8643,  3.6438, 21.5993,  3.4609,  8.0201,  9.0411,  9.01,   1.2
2158,456520.000,  22.306232310, 114.189348001,   17.7300,  2,  7,  0.8148,  1.2148,  4.1845, -0.4107, -1.5416,  1.5390, 10.01,   1.0
2158,456521.000,  22.306215954, 114.189334046,   12.4882,  1,  6,  0.4422,  0.7007,  1.8154,  0.5549,  1.1245,  0.8953, 11.01,   6.9
2158,456522.000,  22.306225437, 114.189349627,   17.6516,  1,  8,  0.0689,  0.0757,  0.3258,  0.0608,  0.1402,  0.1462, 12.01,   3.2
2158,456523.000,  22.306217053, 114.189341608,   17.0135,  2,  9,  0.5050,  0.5752,  2.0677, -0.2139, -0.6036,  0.8977, 13.01,   1.5
2158,456524.000,  22.306219309, 114.189334460,   20.2699,  2, 11,  0.4331,  0.4461,  1.6187, -0.1867, -0.4304,  0.7279, 14.01,   1.5
2158,456525.000,  22.306219296, 114.189330208,   21.3289,  2,  9,  0.3955,  0.3884,  1.4151, -0.1562, -0.3190,  0.6506, 15.01,   1.1
2158,456526.000,  22.306219267, 114.189327931,   21.8809,  2,  9,  0.3671,  0.3502,  1.2787, -0.1380, -0.2521,  0.5961, 16.00,   2.5
2158,456527.000,  22.306217885, 114.189328606,   21.2455,  2,  9,  0.3444,  0.3221,  1.1780, -0.1256, -0.2069,  0.5544, 17.00,   1.4
2158,456528.000,  22.306216777, 114.189328936,   20.7070,  2,  9,  0.3257,  0.3003,  1.0994, -0.1164, -0.1740,  0.5209, 18.00,   1.6
2158,456529.000,  22.306216345, 114.189331921,   20.4263,  2,  8,  0.3189,  0.3050,  1.1332, -0.0875, -0.0409,  0.5268, 19.00,   2.2
2158,456530.000,  22.306214977, 114.189333027,   19.5589,  2,  8,  0.3027,  0.2870,  1.0647, -0.1048, -0.1573,  0.4956, 20.00,   1.0
2158,456531.000,  22.306213793, 114.189333908,   18.7667,  2,  8,  0.2905,  0.2754,  1.0229, -0.1092, -0.1830,  0.4752, 21.00,   1.0
2158,456532.000,  22.306212993, 114.189334319,   18.2610,  2,  9,  0.2779,  0.2603,  0.9570, -0.1019, -0.1566,  0.4487, 22.00,   1.2
2158,456533.000,  22.306212374, 114.189334689,   17.7989,  2,  9,  0.2681,  0.2484,  0.9136, -0.0977, -0.1417,  0.4307, 23.00,   1.1
2158,456534.000,  22.306211573, 114.189335383,   17.1854,  2,  8,  0.2618,  0.2434,  0.9060, -0.1021, -0.1659,  0.4243, 24.00,   1.3
2158,456535.000,  22.306210845, 114.189335774,   16.6333,  2,  9,  0.2526,  0.2325,  0.8568, -0.0941, -0.1369,  0.4045, 25.00,   1.0
2158,456536.000,  22.306210027, 114.189336271,   16.0463,  2,  8,  0.2481,  0.2295,  0.8568, -0.0989, -0.1615,  0.4017, 26.00,   1.1
2158,456537.000,  22.306209136, 114.189336717,   15.4544,  2,  8,  0.2426,  0.2251,  0.8418, -0.0990, -0.1666,  0.3937, 27.00,   1.6
2158,456538.000,  22.306208309, 114.189337081,   14.9087,  2,  8,  0.2376,  0.2210,  0.8284, -0.0990, -0.1707,  0.3866, 28.00,   1.3
2158,456539.000,  22.306207785, 114.189337285,   14.5060,  2,  9,  0.2302,  0.2118,  0.7836, -0.0899, -0.1388,  0.3691, 29.00,   1.4
2158,456540.000,  22.306207755, 114.189337507,   14.3371,  2,  8,  0.2172,  0.2023,  0.7490, -0.0872, -0.1486,  0.3502,  0.00,   1.9
2158,456541.000,  22.306208161, 114.189337607,   14.4462,  2,  8,  0.2132,  0.1962,  0.7347, -0.0841, -0.1384,  0.3443,  1.00,   1.4
2158,456542.000,  22.306205682, 114.189336882,   13.2420,  1,  8,  0.0116,  0.0119,  0.0459, -0.0066, -0.0150,  0.0202,  2.01,   3.3
2158,456543.000,  22.306205601, 114.189336943,   13.2270,  1,  8,  0.0129,  0.0129,  0.0505, -0.0074, -0.0163,  0.0223,  3.01,   3.8
2158,456544.000,  22.306207210, 114.189338194,   13.5671,  2,  8,  0.2007,  0.1866,  0.6995, -0.0827, -0.1455,  0.3257,  4.01,   2.4
2158,456545.000,  22.306207017, 114.189338280,   13.3284,  2,  8,  0.1971,  0.1837,  0.6895, -0.0822, -0.1466,  0.3204,  5.01,   1.6
2158,456546.000,  22.306207171, 114.189338297,   13.3795,  2,  7,  0.1957,  0.1812,  0.6947, -0.0827, -0.1508,  0.3216,  6.01,   1.4
2158,456547.000,  22.306206995, 114.189338483,   13.1719,  2,  9,  0.1911,  0.1769,  0.6699, -0.0794, -0.1404,  0.3114,  7.01,   2.0
2158,456548.000,  22.306206819, 114.189338539,   12.9609,  2,  8,  0.1881,  0.1746,  0.6619, -0.0790, -0.1417,  0.3071,  8.01,   1.1
2158,456549.000,  22.306207195, 114.189338440,   13.0498,  2,  7,  0.1878,  0.1727,  0.6723, -0.0802, -0.1470,  0.3107,  9.01,   1.1
2158,456550.000,  22.306207444, 114.189338512,   13.0949,  2,  7,  0.1862,  0.1708,  0.6722, -0.0803, -0.1490,  0.3100, 10.01,   1.3
2158,456551.000,  22.306207786, 114.189338356,   13.1859,  2,  7,  0.1848,  0.1689,  0.6726, -0.0804, -0.1510,  0.3095, 11.01,   1.3
2158,456552.000,  22.306207839, 114.189338325,   13.1097,  2,  8,  0.1803,  0.1669,  0.6495, -0.0785, -0.1471,  0.2991, 12.01,   1.2
2158,456553.000,  22.306207792, 114.189338384,   12.9957,  2,  8,  0.1782,  0.1653,  0.6432, -0.0782, -0.1477,  0.2958, 13.01,   1.4
2158,456554.000,  22.306208258, 114.189338187,   13.1321,  2,  7,  0.1801,  0.1641,  0.6658, -0.0806, -0.1551,  0.3049, 14.01,   1.6
2158,456555.000,  22.306208574, 114.189338188,   13.1864,  2,  7,  0.1793,  0.1628,  0.6678, -0.0809, -0.1570,  0.3053, 15.01,   1.5
2158,456556.000,  22.306209041, 114.189337957,   13.3189,  2,  7,  0.1786,  0.1615,  0.6701, -0.0813, -0.1588,  0.3058, 16.00,   1.5
2158,456557.000,  22.306209006, 114.189337916,   13.1630,  2,  8,  0.1728,  0.1599,  0.6360, -0.0783, -0.1519,  0.2908, 17.00,   1.4
2158,456558.000,  22.306209016, 114.189338216,   12.9905,  2,  9,  0.1709,  0.1573,  0.6245, -0.0765, -0.1457,  0.2865, 18.00,   1.1
2158,456559.000,  22.306209160, 114.189338164,   12.9848,  2,  8,  0.1695,  0.1565,  0.6215, -0.0768, -0.1472,  0.2847, 19.00,   1.4
2158,456560.000,  22.306209336, 114.189338131,   12.9788,  2,  8,  0.1683,  0.1555,  0.6179, -0.0768, -0.1477,  0.2828, 20.00,   1.3
2158,456561.000,  22.306209507, 114.189338081,   12.9630,  2,  9,  0.1658,  0.1521,  0.5998, -0.0728, -0.1348,  0.2761, 21.00,   1.1
2158,456562.000,  22.306209639, 114.189338108,   12.9469,  2,  8,  0.1658,  0.1529,  0.6069, -0.0757, -0.1442,  0.2782, 22.00,   1.1
2158,456563.000,  22.306209901, 114.189338061,   12.9985,  2,  8,  0.1660,  0.1490,  0.6046, -0.0702, -0.1263,  0.2789, 23.00,   1.1
2158,456564.000,  22.306210016, 114.189338110,   12.9776,  2,  9,  0.1622,  0.1471,  0.5801, -0.0693, -0.1224,  0.2685, 24.00,   1.2
2158,456565.000,  22.306210079, 114.189338099,   12.9457,  2,  9,  0.1610,  0.1454,  0.5720, -0.0679, -0.1168,  0.2655, 25.00,   1.3
2158,456566.000,  22.306210182, 114.189338074,   12.9429,  2,  9,  0.1599,  0.1439,  0.5648, -0.0667, -0.1117,  0.2628, 26.00,   1.3
2158,456567.000,  22.306210372, 114.189338050,   12.9883,  2,  9,  0.1589,  0.1426,  0.5583, -0.0656, -0.1069,  0.2605, 27.00,   1.4
2158,456568.000,  22.306210578, 114.189337920,   13.0313,  2,  9,  0.1581,  0.1413,  0.5524, -0.0646, -0.1024,  0.2584, 28.00,   1.4
2158,456569.000,  22.306210827, 114.189337772,   13.1031,  2,  9,  0.1573,  0.1402,  0.5471, -0.0637, -0.0981,  0.2565, 29.00,   1.4
2158,456570.000,  22.306211117, 114.189337401,   13.1946,  2,  9,  0.1429,  0.1297,  0.5064, -0.0581, -0.0998,  0.2351,  0.00,   1.7
2158,456571.000,  22.306211356, 114.189337370,   13.2444,  2,  9,  0.1413,  0.1281,  0.4991, -0.0570, -0.0966,  0.2321,  1.00,   1.7
2158,456572.000,  22.306211605, 114.189337419,   13.3058,  2,  8,  0.1405,  0.1265,  0.4965, -0.0561, -0.0937,  0.2311,  2.01,   1.0
2158,456573.000,  22.306211762, 114.189337387,   13.3204,  2,  9,  0.1388,  0.1251,  0.4885, -0.0552, -0.0909,  0.2276,  3.01,   1.6
2158,456574.000,  22.306212070, 114.189337322,   13.4076,  2,  7,  0.1392,  0.1247,  0.4978, -0.0566, -0.0966,  0.2309,  4.01,   1.5
2158,456575.000,  22.306212171, 114.189337476,   13.4125,  2,  8,  0.1370,  0.1238,  0.4860, -0.0555, -0.0940,  0.2258,  5.01,   1.6
2158,456576.000,  22.306212340, 114.189337402,   13.4374,  2,  8,  0.1361,  0.1231,  0.4834, -0.0555, -0.0947,  0.2244,  6.01,   1.5
2158,456577.000,  22.306211757, 114.189337305,   13.1996,  2, 10,  0.1344,  0.1225,  0.4776, -0.0555, -0.0955,  0.2212,  7.01,   1.7
2158,456578.000,  22.306208787, 114.189335690,   12.9653,  2, 10,  0.1325,  0.1219,  0.4704, -0.0553, -0.0957,  0.2174,  8.01,   1.7
2158,456579.000,  22.306200642, 114.189330283,   12.7131,  2,  8,  0.1309,  0.1226,  0.4660, -0.0548, -0.0994,  0.2139,  9.01,   1.0
2158,456580.000,  22.306154483, 114.189340486,   -2.1430,  2,  5,  0.9117,  0.6914,  4.3134, -0.7855, -1.7111,  1.9784, 10.01,   1.0
2158,456581.000,  22.306132766, 114.189318705,    0.8715,  2,  6,  0.5224,  0.4147,  2.4610, -0.4514, -0.9843,  1.1257, 11.01,   1.3
2158,456582.000,  22.306097980, 114.189294147,    2.3468,  2,  5,  0.5107,  0.4080,  2.4067, -0.4423, -0.9648,  1.1002, 12.01,   1.3
2158,456583.000,  22.306055365, 114.189264566,    4.7728,  2,  6,  0.4905,  0.3948,  2.3117, -0.4254, -0.9286,  1.0559, 13.01,   1.2
2158,456585.000,  22.305945791, 114.189196418,  -10.4183,  2,  5,  2.2625,  1.7862, 16.8464, -2.0051, -5.3711,  5.9897, 15.01,   1.2
2158,456586.000,  22.305886749, 114.189150571,   -1.1349,  2,  7,  0.7367,  0.5538,  4.3284, -0.6258, -1.3388,  1.4716, 16.00,   1.4
2158,456590.000,  22.305715540, 114.188919388,   65.2732,  5,  3,  2.2695, 10.2325, 28.5220, -1.5088,-16.1384,  5.6581, 20.00,   0.0
2158,456591.000,  22.305611082, 114.188954128,   -2.8568,  2,  8,  0.7609,  1.2425,  4.3251, -0.4329, -1.8606,  1.4395, 21.00,   1.6
2158,456592.000,  22.305573676, 114.188908069,    3.8954,  2, 11,  0.5729,  0.7926,  2.7719, -0.3238, -1.1092,  1.0414, 22.00,   1.1
2158,456593.000,  22.305531045, 114.188886769,    5.8587,  2,  7,  0.4867,  0.7346,  2.3533, -0.2501, -0.9580,  0.8522, 23.00,   1.5
2158,456594.000,  22.305484694, 114.188894910,    2.1295,  2,  8,  0.4982,  0.5866,  1.9499,  0.1819, -0.7862,  0.4377, 24.00,   2.8
2158,456595.000,  22.305437735, 114.188932346,   -1.0479,  2,  8,  0.7815,  1.5438,  4.3646, -0.9862, -2.4848,  1.6461, 25.00,   1.7
2158,456596.000,  22.305412409, 114.188952680,    3.4064,  2, 12,  0.3788,  0.5109,  1.3997, -0.2373, -0.5366,  0.3648, 26.00,   1.0
2158,456597.000,  22.305386102, 114.188990531,    2.7470,  1,  7,  0.1181,  0.1802,  0.1863, -0.1400, -0.1395,  0.1186, 27.00,   3.0
2158,456598.000,  22.305356510, 114.189035991,    2.5617,  2,  9,  0.3963,  0.4692,  1.2642, -0.2696, -0.5400,  0.5124, 28.00,   1.6
2158,456599.000,  22.305333805, 114.189075979,    4.4219,  2,  6,  3.3378,  3.6064,  7.3096, -3.4535, -5.1039,  4.9141, 29.00,   1.5
2158,456602.000,  22.305139957, 114.189243900,   26.5828,  2,  4, 14.6072, 26.5356, 29.7908, 19.1500,  7.0350, -9.6262,  2.01, 199.9
2158,456604.000,  22.305270959, 114.189471274,   -3.0483,  2,  5,  3.4696,  2.4591,  2.1129,  2.8016, -1.5411, -1.9568,  4.01,   2.2
2158,456612.000,  22.304876324, 114.189857674,   14.0628,  5,  3, 13.3977,  2.0485, 26.8832,  4.3116, -5.5923,-18.8564, 12.01,   0.0
2158,456613.000,  22.304800654, 114.189901855,   16.1031,  2,  4, 22.8995,  6.3034, 18.6046,-11.8541, 10.7593,-20.4155, 13.01,  11.5
2158,456614.000,  22.304850198, 114.189896688,   10.1524,  1,  7,  0.1378,  0.0989,  0.3637,  0.0619,  0.1346, -0.1830, 14.01,   8.0
2158,456615.000,  22.304848460, 114.189889977,    3.1081,  2,  8,  0.9264,  0.6404,  1.4973,  0.5477,  0.6880, -0.5257, 15.01,   1.0
2158,456616.000,  22.304843895, 114.189892099,    2.7129,  2,  9,  0.8060,  0.5212,  1.1203,  0.4906,  0.4885, -0.3799, 16.00,   1.2
2158,456617.000,  22.304843288, 114.189891374,    2.3434,  2,  8,  0.7255,  0.4549,  0.9443,  0.4456,  0.3928, -0.3150, 17.00,   1.0
2158,456618.000,  22.304842659, 114.189890619,    2.0906,  2,  8,  0.6657,  0.4101,  0.8334,  0.4106,  0.3352, -0.2743, 18.00,   1.0
2158,456619.000,  22.304842706, 114.189890720,    1.9300,  2,  8,  0.6189,  0.3768,  0.7551,  0.3826,  0.2961, -0.2459, 19.00,   1.0
2158,456620.000,  22.304842473, 114.189890726,    1.8199,  2,  8,  0.5810,  0.3508,  0.6959,  0.3596,  0.2675, -0.2249, 20.00,   1.1
2158,456621.000,  22.304841418, 114.189890585,    1.8609,  2,  9,  0.5309,  0.3287,  0.6367,  0.3351,  0.2520, -0.1596, 21.00,   1.5
2158,456622.000,  22.304838447, 114.189896474,    3.6167,  2, 10,  0.4934,  0.3049,  0.5759,  0.3153,  0.2207, -0.1107, 22.00,   1.3
2158,456623.000,  22.304838075, 114.189895788,    3.4064,  2,  9,  0.4627,  0.2902,  0.5430,  0.2982,  0.2127, -0.0617, 23.00,   1.5
2158,456624.000,  22.304837803, 114.189900254,    4.4083,  2, 10,  0.4377,  0.2737,  0.5055,  0.2836,  0.1928,  0.0259, 24.00,   1.0
2158,456625.000,  22.304837309, 114.189903395,    5.0916,  2, 10,  0.4168,  0.2600,  0.4758,  0.2709,  0.1776,  0.0582, 25.00,   1.1
2158,456626.000,  22.304837441, 114.189905992,    5.5439,  2, 10,  0.3989,  0.2484,  0.4515,  0.2599,  0.1652,  0.0713, 26.00,   1.1
2158,456627.000,  22.304837247, 114.189909226,    5.8847,  2, 10,  0.3833,  0.2383,  0.4309,  0.2502,  0.1550,  0.0784, 27.00,   1.1
2158,456628.000,  22.304828951, 114.189920326,    5.9665,  2,  9,  0.3724,  0.2314,  0.4150,  0.2443,  0.1499,  0.0920, 28.00,   1.7
2158,456629.000,  22.304813362, 114.189944913,    5.9912,  2,  6,  0.3638,  0.2782,  0.5632,  0.2486,  0.2930,  0.1477, 29.00,   2.0
2158,456630.000,  22.304791385, 114.189978625,    5.8052,  2,  5,  0.3577,  0.2259,  0.4369,  0.2338,  0.1569, -0.0518,  0.00,   1.7
2158,456631.000,  22.304766046, 114.190019112,    5.6048,  2,  8,  0.3448,  0.2220,  0.3937,  0.2311,  0.1453,  0.0773,  1.00,   1.2
2158,456632.000,  22.304736957, 114.190063463,    5.4031,  2,  8,  0.3389,  0.2204,  0.3838,  0.2296,  0.1388,  0.0716,  2.01,   1.1
2158,456633.000,  22.304701413, 114.190113305,    5.2158,  2,  9,  0.3242,  0.2128,  0.3745,  0.2194,  0.1351,  0.0732,  3.01,   1.1
2158,456634.000,  22.304661592, 114.190165707,    5.0781,  2, 10,  0.2961,  0.2053,  0.3640,  0.2039,  0.1364,  0.0952,  4.01,   1.3
