% program   : RTKLIB ver.2.4.2
% inp file  : /xikun_ws/GLIO_latest_ws/src/GLIO/GraphGNSSLibV1.1/global_fusion/dataset/tst20210517/20210517.light-urban.tste.ublox.f9p.obs
% inp file  : /xikun_ws/GLIO_latest_ws/src/GLIO/GraphGNSSLibV1.1/global_fusion/dataset/tst20210517/hksc137c.21o
% inp file  : /xikun_ws/GLIO_latest_ws/src/GLIO/GraphGNSSLibV1.1/global_fusion/dataset/tst20210517/hksc137c.nav
% obs start : 2021/05/17 02:33:13.0 GPST (week2158  95593.0s)
% obs end   : 2021/05/17 02:46:19.0 GPST (week2158  96379.0s)
% pos mode  : kinematic
% freqs     : L1
% solution  : forward
% elev mask : 15.0 deg
% dynamics  : off
% tidecorr  : on
% ionos opt : broadcast
% tropo opt : saastamoinen
% ephemeris : broadcast
% navi sys  : gps glonass galileo qzss sbas
% amb res   : continuous
% amb glo   : on
% val thres : 3.0
% antenna1  :                       ( 0.0000  0.0000  0.0000)
% antenna2  :                       ( 0.0000  0.0000  0.0000)
% ref pos   : 22.322172082, 114.141187963,   20.2469
%
% (lat/lon/height=WGS84/ellipsoidal,Q=1:fix,2:float,3:sbas,4:dgps,5:single,6:ppp,ns=# of satellites)
%  GPST        , latitude(deg),longitude(deg), height(m),  Q, ns,  sdn(m),  sde(m),  sdu(m), sdne(m), sdeu(m), sdun(m),age(s), ratio
2158, 95601.000,  22.301286896, 114.178899665,   31.8638,  5,  2, 20.2748, 22.7737, 29.5025,-20.7800,-10.3080,-10.9687,  0.00,   0.0
2158, 95606.000,  22.301157906, 114.178925300,    4.0683,  5,  2, 20.2746, 22.7691, 29.5055,-20.7829,-10.2937,-10.9519,  0.00,   0.0
2158, 95610.000,  22.301018682, 114.178839180,    7.9135,  5,  2, 13.1429, 27.8936, 29.1688,-17.2570,  8.8001, 13.7521,  0.00,   0.0
2158, 95611.000,  22.300967924, 114.178932942,    1.1458,  5, 16, 30.0000, 30.0000, 30.0000,  0.0000,  0.0000, -0.0000,  0.00,   0.0
2158, 95612.000,  22.300895293, 114.179003986,   10.1644,  5,  2, 20.4094, 22.0387, 29.9754, 21.1552, -4.9706,  5.1662,  0.00,   0.0
2158, 95614.000,  22.300929333, 114.179177816,   73.8201,  2,  4,  5.7972,  4.6144, 29.1036,  5.0824, 11.3982, 12.9291,  0.00, 878.1
2158, 95615.000,  22.300841369, 114.179221775,   61.0147,  2,  4,  5.7875,  4.5971, 29.1026,  5.0691, 11.4022, 12.9335,  0.00, 149.9
2158, 95617.000,  22.300659554, 114.179271748,  -15.7083,  2,  5,  0.8591,  1.7447,  7.7971,  0.8299, -3.3691, -1.6670,  0.00,   0.0
2158, 95618.000,  22.300596782, 114.179327773,  -10.4125,  2,  7,  0.5118,  1.0580,  3.8009,  0.3639, -1.7690, -0.2527,  0.00,  62.3
2158, 95622.000,  22.300748842, 114.180022129,   58.9222,  2,  4, 14.9478, 14.8613, 21.4698, 14.8967, 17.7383, 17.8348,  0.00,   2.2
2158, 95624.000,  22.300696541, 114.180216730,   72.9008,  1,  4, 14.9161, 14.7820, 21.4244, 14.8489, 17.7959, 17.8765,  0.00,   7.6
2158, 95625.000,  22.300691158, 114.180322748,   82.2296,  2,  4, 14.9357, 14.8622, 21.4928, 14.8847, 17.7208, 17.8424,  0.00,   1.0
2158, 95628.000,  22.300092514, 114.179788529,   85.1397,  2,  8,  0.7664,  1.2477,  7.6013,  0.8864, -2.8534, -2.0016,  0.00,   1.4
2158, 95629.000,  22.300127246, 114.179862352,    7.9193,  2,  9,  0.3214,  0.5380,  1.3351,  0.2045, -0.6590,  0.5180,  0.00,   1.0
2158, 95630.000,  22.300120746, 114.179850791,    7.8337,  2, 10,  0.2615,  0.4753,  1.2213,  0.1213, -0.6323,  0.4510,  0.00,   1.0
2158, 95631.000,  22.300114537, 114.179841669,    7.3811,  2, 10,  0.2277,  0.4343,  1.1391,  0.0659, -0.6013,  0.4090,  0.00,   1.0
2158, 95632.000,  22.300110235, 114.179835668,    6.9320,  2, 10,  0.2047,  0.4037,  1.0683, -0.0244, -0.5714,  0.3791,  0.00,   1.0
2158, 95633.000,  22.300107458, 114.179832412,    6.5528,  2, 10,  0.1878,  0.3793,  1.0113, -0.0555, -0.5450,  0.3552,  0.00,   1.1
2158, 95634.000,  22.300119059, 114.179814514,   14.5881,  2, 11,  0.1635,  0.3525,  0.8978, -0.0134, -0.4980,  0.3021,  0.00,   1.0
2158, 95635.000,  22.300116608, 114.179813702,   13.8502,  2, 10,  0.1548,  0.3455,  0.8854, -0.0483, -0.4956,  0.2935,  0.00,   1.1
2158, 95636.000,  22.300121881, 114.179803009,   18.0244,  2, 11,  0.1403,  0.3247,  0.8089, -0.0230, -0.4601,  0.2608,  0.00,   1.2
2158, 95637.000,  22.300119988, 114.179802285,   17.4742,  2,  9,  0.1349,  0.3193,  0.8014, -0.0440, -0.4578,  0.2563,  0.00,   1.0
2158, 95638.000,  22.300123062, 114.179795063,   20.0891,  2, 10,  0.1252,  0.3027,  0.7455, -0.0277, -0.4301,  0.2340,  0.00,   1.3
2158, 95639.000,  22.300121463, 114.179795625,   19.3744,  2, 10,  0.1210,  0.2918,  0.7249, -0.0358, -0.4169,  0.2287,  0.00,   1.2
2158, 95640.000,  22.300123810, 114.179790131,   21.4043,  2, 10,  0.1139,  0.2788,  0.6821, -0.0224, -0.3954,  0.2121,  0.00,   1.2
2158, 95641.000,  22.300125669, 114.179785951,   22.9589,  2, 11,  0.1078,  0.2674,  0.6460,  0.0082, -0.3768,  0.1982,  0.00,   1.3
2158, 95642.000,  22.300124166, 114.179786399,   22.3085,  2,  8,  0.1063,  0.2602,  0.6347, -0.0141, -0.3680,  0.1968,  0.00,   1.1
2158, 95643.000,  22.300122986, 114.179787507,   21.6090,  2,  9,  0.1035,  0.2529,  0.6203, -0.0219, -0.3590,  0.1931,  0.00,   1.1
2158, 95644.000,  22.300121644, 114.179788183,   20.9841,  2,  9,  0.1022,  0.2464,  0.6092, -0.0251, -0.3508,  0.1915,  0.00,   1.1
2158, 95645.000,  22.300120331, 114.179788779,   20.3612,  2,  8,  0.1007,  0.2406,  0.5982, -0.0272, -0.3432,  0.1894,  0.00,   1.0
2158, 95646.000,  22.300119081, 114.179789290,   19.8002,  2,  9,  0.0993,  0.2349,  0.5875, -0.0287, -0.3357,  0.1873,  0.00,   1.1
2158, 95647.000,  22.300120781, 114.179785362,   21.2539,  2, 10,  0.0959,  0.2279,  0.5638, -0.0183, -0.3234,  0.1784,  0.00,   1.2
2158, 95648.000,  22.300119649, 114.179785779,   20.7356,  2,  8,  0.0947,  0.2232,  0.5550, -0.0207, -0.3172,  0.1768,  0.00,   1.1
2158, 95649.000,  22.300118471, 114.179786358,   20.1739,  2,  9,  0.0935,  0.2185,  0.5461, -0.0224, -0.3111,  0.1750,  0.00,   1.3
2158, 95650.000,  22.300117362, 114.179786786,   19.6763,  2,  9,  0.0924,  0.2141,  0.5376, -0.0237, -0.3053,  0.1733,  0.00,   1.2
2158, 95651.000,  22.300116637, 114.179787445,   19.2565,  2, 10,  0.0907,  0.2098,  0.5290, -0.0262, -0.2999,  0.1710,  0.00,   1.3
2158, 95652.000,  22.300115599, 114.179787887,   18.7682,  2,  9,  0.0897,  0.2058,  0.5212, -0.0268, -0.2946,  0.1693,  0.00,   1.1
2158, 95653.000,  22.300114550, 114.179788429,   18.2483,  2,  9,  0.0887,  0.2019,  0.5136, -0.0273, -0.2894,  0.1677,  0.00,   1.0
2158, 95654.000,  22.300113577, 114.179788801,   17.8333,  2,  9,  0.0877,  0.1983,  0.5062, -0.0277, -0.2845,  0.1661,  0.00,   1.2
2158, 95655.000,  22.300112618, 114.179789367,   17.3491,  2,  9,  0.0868,  0.1948,  0.4991, -0.0280, -0.2797,  0.1645,  0.00,   1.3
2158, 95656.000,  22.300111756, 114.179789663,   16.9617,  2,  8,  0.0859,  0.1915,  0.4923, -0.0282, -0.2752,  0.1629,  0.00,   1.2
2158, 95657.000,  22.300110864, 114.179789993,   16.5491,  2,  9,  0.0850,  0.1883,  0.4856, -0.0282, -0.2708,  0.1614,  0.00,   1.3
2158, 95658.000,  22.300110082, 114.179790254,   16.1914,  2,  9,  0.0841,  0.1852,  0.4791, -0.0282, -0.2665,  0.1598,  0.00,   1.3
2158, 95659.000,  22.300109249, 114.179790499,   15.8311,  2,  8,  0.0833,  0.1823,  0.4729, -0.0282, -0.2624,  0.1583,  0.00,   1.2
2158, 95660.000,  22.300108457, 114.179790779,   15.4720,  2,  8,  0.0825,  0.1794,  0.4668, -0.0282, -0.2584,  0.1568,  0.00,   1.2
2158, 95661.000,  22.300107704, 114.179790990,   15.1586,  2, 10,  0.0817,  0.1766,  0.4608, -0.0280, -0.2545,  0.1554,  0.00,   1.0
2158, 95662.000,  22.300106941, 114.179791072,   14.8357,  2,  8,  0.0809,  0.1740,  0.4550, -0.0278, -0.2508,  0.1539,  0.00,   1.1
2158, 95663.000,  22.300105830, 114.179791356,   14.5851,  2,  8,  0.0802,  0.1714,  0.4494, -0.0276, -0.2471,  0.1525,  0.00,   1.1
2158, 95664.000,  22.300102248, 114.179794115,   14.2694,  2,  9,  0.0795,  0.1688,  0.4437, -0.0273, -0.2435,  0.1511,  0.00,   1.1
2158, 95665.000,  22.300095020, 114.179800060,   13.9879,  2,  8,  0.0787,  0.1664,  0.4383, -0.0270, -0.2400,  0.1497,  0.00,   1.0
2158, 95666.000,  22.300082799, 114.179811416,   13.4428,  2,  9,  0.0772,  0.1611,  0.4207, -0.0174, -0.2293,  0.1442,  0.00,   1.1
2158, 95667.000,  22.300070114, 114.179822418,   13.3229,  2,  8,  0.0789,  0.1594,  0.4217, -0.0145, -0.2263,  0.1472,  0.00,   1.0
2158, 95668.000,  22.300056940, 114.179830223,   11.7619,  2,  6,  0.0966,  0.1596,  0.8178,  0.0315, -0.1894,  0.2464,  0.00,   1.0
2158, 95669.000,  22.300051626, 114.179834532,   13.0170,  2, 10,  0.0760,  0.1571,  0.4092, -0.0109, -0.2224,  0.1407,  0.00,   1.0
2158, 95670.000,  22.300050995, 114.179827448,   14.8373,  2, 10,  0.0747,  0.1536,  0.3966,  0.0116, -0.2157,  0.1363,  0.00,   1.0
2158, 95671.000,  22.300050685, 114.179822123,   15.8909,  2, 10,  0.0724,  0.1388,  0.3510,  0.0327, -0.1863,  0.1247,  0.00,   1.0
2158, 95672.000,  22.300040473, 114.179817034,   14.4153,  2,  8,  0.2207,  0.2506,  0.4558,  0.2114,  0.1633,  0.2762,  0.00,   1.0
2158, 95673.000,  22.300039843, 114.179829899,   14.6882,  2,  9,  0.0711,  0.1361,  0.3405,  0.0352, -0.1804,  0.1209,  0.00,   1.0
2158, 95688.000,  22.299362747, 114.179117674,   -4.5450,  5,  3,  7.1279,  4.8063, 29.3716, -3.4836, -5.3022,-13.2740,  0.00,   0.0
2158, 95694.000,  22.299019132, 114.178743588,   -1.0157,  2,  6,  1.1544,  1.6420,  6.2141,  1.0416, -2.9763, -2.3282,  0.00,   0.0
2158, 95695.000,  22.298965923, 114.178669389,   -3.2292,  2,  9,  0.5081,  0.7719,  2.4162, -0.0810, -1.1141, -0.6313,  0.00,   9.5
2158, 95696.000,  22.298919856, 114.178587650,   -2.9724,  2, 12,  0.3396,  0.5585,  1.7072, -0.1201, -0.7557, -0.3827,  0.00,   1.6
2158, 95697.000,  22.298859880, 114.178513861,   -2.8027,  2,  9,  0.2954,  0.5112,  1.4774, -0.1835, -0.6785, -0.2357,  0.00,   1.1
2158, 95698.000,  22.298797965, 114.178438548,   -1.9431,  2,  8,  0.2733,  0.4837,  1.3468, -0.1924, -0.6410, -0.1596,  0.00,   1.0
2158, 95699.000,  22.298737438, 114.178362861,   -1.3752,  2,  5,  0.2721,  0.4844,  1.3169, -0.2131, -0.6361, -0.1483,  0.00,   2.3
2158, 95700.000,  22.298676350, 114.178289929,   -0.9113,  2,  5,  0.2673,  0.4777,  1.2861, -0.2200, -0.6262, -0.1431,  0.00,   1.3
2158, 95704.000,  22.298445062, 114.178018099,    0.9547,  2,  5,  0.7843,  0.4778,  3.6753,  0.2018, -0.8992, -1.6047,  0.00,   1.0
2158, 95705.000,  22.298391175, 114.177962155,   -1.5185,  2,  8,  0.4356,  0.4400,  1.6943, -0.2774, -0.4672, -0.6727,  0.00,   1.1
2158, 95706.000,  22.298321272, 114.177913536,    0.2157,  2,  8,  0.3566,  0.4224,  1.2412, -0.2798, -0.4283, -0.4180,  0.00,   1.5
2158, 95707.000,  22.298263673, 114.177848482,    0.3754,  2,  6,  0.3366,  0.4206,  1.0659, -0.2933, -0.3872, -0.3178,  0.00,   1.5
2158, 95708.000,  22.298200752, 114.177793384,   -0.2787,  5,  2, 13.7056, 27.6731, 29.0953,-17.5826,  9.2036, 13.9689,  0.00,   0.0
2158, 95711.000,  22.298287348, 114.177185784,   35.2732,  2,  4, 13.6251, 19.9459, 18.0802,-16.4643,-18.7715, 15.4920,  0.00,   1.2
2158, 95714.000,  22.297871712, 114.177367323,   -5.1009,  5,  2, 20.2977, 22.6829, 29.5703,-20.8261, -9.9666,-10.5719,  0.00,   0.0
2158, 95717.000,  22.297708184, 114.177159398,   -1.9698,  2,  6,  0.6866,  1.1654,  6.2808, -0.2685, -2.0996, -0.2624,  0.00, 171.2
2158, 95720.000,  22.297508157, 114.176950434,    4.1883,  5,  2, 17.9051, 24.6973, 29.5011,-20.2470, -9.6328,-11.4521,  0.00,   0.0
2158, 95721.000,  22.297404044, 114.176949882,    7.2430,  1,  8,  0.0605,  0.0955,  0.0994, -0.0757, -0.0935,  0.0743,  0.00,  10.7
2158, 95722.000,  22.297398292, 114.176778474,    8.5348,  1,  8,  0.0332,  0.0574,  0.0554, -0.0432, -0.0494,  0.0366,  0.00,   4.0
2158, 95723.000,  22.297321959, 114.176728287,    0.3163,  1,  6,  1.0301,  0.7590,  2.5291, -0.8832, -1.3826,  1.6137,  0.00,   3.4
2158, 95724.000,  22.297292524, 114.176609448,   13.8154,  5, 11, 30.0000, 30.0000, 30.0000,  0.0000,  0.0000,  0.0000,  0.00,   0.0
2158, 95725.000,  22.297248561, 114.176546655,    4.6051,  5, 14, 30.0000, 30.0000, 30.0000,  0.0000,  0.0000,  0.0000,  0.00,   0.0
2158, 95726.000,  22.297304738, 114.176439085,   -7.8073,  5,  2, 17.8963, 25.9434, 29.5375, 19.0451,  8.8910,-11.2404,  0.00,   0.0
2158, 95727.000,  22.297153204, 114.176410780,   -2.0070,  5, 16, 30.0000, 30.0000, 30.0000,  0.0000,  0.0000,  0.0000,  0.00,   0.0
2158, 95729.000,  22.297088431, 114.176272416,   -1.0655,  1,  6,  0.0335,  0.0129,  0.0925,  0.0150,  0.0243,  0.0545,  0.00,   3.7
2158, 95730.000,  22.297130166, 114.176173226,    5.0072,  1,  8,  0.8849,  1.5148,  1.8186, -1.0515, -0.5902,  1.0343,  0.00,   4.4
2158, 95731.000,  22.297214326, 114.176151156,   35.0096,  1,  5,  8.1845,  0.5302, 28.6630, -2.0827, -3.8975, 15.3164,  0.00,   3.1
2158, 95735.000,  22.297109222, 114.176133366,    4.8221,  2,  6,  0.5807,  0.8876,  1.7317, -0.5599, -0.7111,  0.6538,  0.00,   1.5
2158, 95736.000,  22.297122813, 114.176109481,    8.2161,  2,  9,  0.3755,  0.5573,  1.3639, -0.2625, -0.4893,  0.3604,  0.00,   1.0
2158, 95737.000,  22.297131323, 114.176097129,    8.8505,  2, 10,  0.2922,  0.4495,  1.1839, -0.1524, -0.4270,  0.2381,  0.00,   1.1
2158, 95738.000,  22.297133892, 114.176090712,    8.9401,  2,  9,  0.3063,  0.4096,  1.2000, -0.1459, -0.3628, -0.2417,  0.00,   1.7
2158, 95739.000,  22.297135439, 114.176087283,    9.2681,  2,  8,  0.2295,  0.3960,  0.9645, -0.1102, -0.3971,  0.1804,  0.00,   1.1
2158, 95740.000,  22.297136293, 114.176088977,    9.0574,  2,  8,  0.2105,  0.3703,  0.9028, -0.0987, -0.3791,  0.1543,  0.00,   1.3
2158, 95741.000,  22.297137356, 114.176088998,    8.9703,  2, 10,  0.1923,  0.3364,  0.8482, -0.0679, -0.3535,  0.1241,  0.00,   1.1
2158, 95742.000,  22.297138051, 114.176089094,    8.8448,  2, 10,  0.1790,  0.3118,  0.8032, -0.0456, -0.3330,  0.0998,  0.00,   1.2
2158, 95743.000,  22.297138118, 114.176089127,    8.5888,  2, 10,  0.1702,  0.2938,  0.7805, -0.0356, -0.3233,  0.1010,  0.00,   1.3
2158, 95744.000,  22.297137983, 114.176088967,    8.3994,  2, 11,  0.1620,  0.2784,  0.7599, -0.0333, -0.3138,  0.1074,  0.00,   1.1
2158, 95745.000,  22.297137699, 114.176087996,    8.1496,  2,  9,  0.1426,  0.2038,  0.4571, -0.1174,  0.1258,  0.2246,  0.00,   2.7
2158, 95746.000,  22.297137260, 114.176086771,    8.2024,  2,  9,  0.1392,  0.1971,  0.4438, -0.1147,  0.1178,  0.2190,  0.00,   2.4
2158, 95747.000,  22.297137215, 114.176085723,    8.1510,  2, 10,  0.1352,  0.1884,  0.4303, -0.1104,  0.1091,  0.2136,  0.00,   1.3
2158, 95748.000,  22.297137247, 114.176084894,    7.9473,  2, 10,  0.1316,  0.1831,  0.4196, -0.1071,  0.1069,  0.2081,  0.00,   1.1
2158, 95749.000,  22.297137212, 114.176084380,    7.7860,  2,  8,  0.1301,  0.1824,  0.4105, -0.1080,  0.1003,  0.2042,  0.00,   1.1
2158, 95750.000,  22.297137136, 114.176083649,    7.6363,  2,  9,  0.1281,  0.1815,  0.4032, -0.1076,  0.0891,  0.1982,  0.00,   1.0
2158, 95751.000,  22.297137088, 114.176083059,    7.5172,  2, 10,  0.1264,  0.1793,  0.3946, -0.1072,  0.0857,  0.1944,  0.00,   1.0
2158, 95752.000,  22.297137020, 114.176082497,    7.4243,  2, 10,  0.1249,  0.1778,  0.3867, -0.1071,  0.0817,  0.1909,  0.00,   1.0
2158, 95753.000,  22.297136923, 114.176081685,    7.3499,  2,  9,  0.1235,  0.1800,  0.3931, -0.1081,  0.0464,  0.1880,  0.00,   1.0
2158, 95754.000,  22.297137078, 114.176080647,    7.1348,  2,  9,  0.1214,  0.1726,  0.3698, -0.1059,  0.0683,  0.1840,  0.00,   1.1
2158, 95755.000,  22.297137351, 114.176079108,    7.0092,  2,  8,  0.1240,  0.1776,  0.3629, -0.1128,  0.0490,  0.1831,  0.00,   1.3
2158, 95756.000,  22.297137406, 114.176078421,    6.9269,  2,  8,  0.1181,  0.1658,  0.3562, -0.1032,  0.0544,  0.1785,  0.00,   1.2
2158, 95757.000,  22.297137507, 114.176077254,    7.0924,  2,  7,  0.1170,  0.1775,  0.4014, -0.1039, -0.1014,  0.1773,  0.00,   1.0
2158, 95758.000,  22.297137610, 114.176076997,    6.8051,  2, 11,  0.1151,  0.1606,  0.3441, -0.1012,  0.0454,  0.1731,  0.00,   1.4
2158, 95759.000,  22.297137864, 114.176076411,    6.7938,  2, 10,  0.1135,  0.1575,  0.3386, -0.0995,  0.0403,  0.1707,  0.00,   1.1
2158, 95760.000,  22.297138632, 114.176075362,    6.9301,  2, 11,  0.1086,  0.1107,  0.2249, -0.1069, -0.1531,  0.1508,  0.00,   1.0
2158, 95761.000,  22.297139371, 114.176074529,    7.0881,  2, 10,  0.1059,  0.1073,  0.2184, -0.1039, -0.1498,  0.1468,  0.00,   1.3
2158, 95762.000,  22.297140085, 114.176073784,    7.2504,  2, 11,  0.1033,  0.1041,  0.2128, -0.1011, -0.1466,  0.1432,  0.00,   1.0
2158, 95763.000,  22.297140886, 114.176072996,    7.4262,  2, 11,  0.1009,  0.1017,  0.2081, -0.0987, -0.1432,  0.1397,  0.00,   1.0
2158, 95764.000,  22.297141075, 114.176072743,    7.4405,  2, 10,  0.0991,  0.1002,  0.2062, -0.0972, -0.1404,  0.1368,  0.00,   1.3
2158, 95765.000,  22.297141190, 114.176072552,    7.4808,  2,  9,  0.0976,  0.0986,  0.2026, -0.0955, -0.1382,  0.1344,  0.00,   1.4
2158, 95766.000,  22.297141254, 114.176072599,    7.5171,  2,  9,  0.0961,  0.0966,  0.1968, -0.0939, -0.1369,  0.1323,  0.00,   1.4
2158, 95767.000,  22.297141256, 114.176072584,    7.5364,  2, 10,  0.0944,  0.0950,  0.1936, -0.0924, -0.1347,  0.1300,  0.00,   1.1
2158, 95768.000,  22.297140846, 114.176073014,    7.4746,  2, 12,  0.0928,  0.0939,  0.1910, -0.0908, -0.1318,  0.1275,  0.00,   1.0
2158, 95769.000,  22.297141762, 114.176072046,    7.6320,  2, 10,  0.0917,  0.0927,  0.1914, -0.0888, -0.1306,  0.1242,  0.00,   1.0
2158, 95770.000,  22.297142187, 114.176071640,    7.7112,  2, 11,  0.0900,  0.0907,  0.1863, -0.0873, -0.1279,  0.1225,  0.00,   1.7
2158, 95771.000,  22.297142762, 114.176070881,    7.8945,  2,  9,  0.0901,  0.0932,  0.1972, -0.0884, -0.1329,  0.1250,  0.00,   1.8
2158, 95772.000,  22.297142592, 114.176071002,    7.8536,  2, 10,  0.0887,  0.0910,  0.1922, -0.0867, -0.1293,  0.1217,  0.00,   1.2
2158, 95773.000,  22.297142753, 114.176070778,    7.9121,  2, 11,  0.0878,  0.0894,  0.1873, -0.0858, -0.1265,  0.1204,  0.00,   1.1
2158, 95774.000,  22.297142880, 114.176070720,    7.8795,  2, 10,  0.0874,  0.0880,  0.1797, -0.0849, -0.1234,  0.1188,  0.00,   1.2
2158, 95775.000,  22.297142840, 114.176070687,    7.8921,  2, 11,  0.0860,  0.0867,  0.1770, -0.0836, -0.1215,  0.1169,  0.00,   1.0
2158, 95776.000,  22.297142716, 114.176070839,    7.8670,  2, 10,  0.0847,  0.0855,  0.1745, -0.0823, -0.1198,  0.1151,  0.00,   1.2
2158, 95777.000,  22.297142643, 114.176071026,    7.8476,  2, 10,  0.0835,  0.0841,  0.1729, -0.0811, -0.1180,  0.1133,  0.00,   1.1
2158, 95778.000,  22.297142454, 114.176071196,    7.7854,  2,  9,  0.0820,  0.0830,  0.1695, -0.0797, -0.1163,  0.1113,  0.00,   1.0
2158, 95779.000,  22.297142417, 114.176071167,    7.7846,  2, 10,  0.0810,  0.0817,  0.1679, -0.0785, -0.1145,  0.1096,  0.00,   1.0
2158, 95780.000,  22.297142379, 114.176071325,    7.7776,  2, 10,  0.0799,  0.0807,  0.1657, -0.0775, -0.1130,  0.1081,  0.00,   1.0
2158, 95781.000,  22.297142462, 114.176071222,    7.7883,  2,  9,  0.0790,  0.0798,  0.1638, -0.0764, -0.1117,  0.1067,  0.00,   1.2
2158, 95782.000,  22.297142527, 114.176071233,    7.8049,  2,  9,  0.0781,  0.0789,  0.1619, -0.0755, -0.1104,  0.1053,  0.00,   1.2
2158, 95783.000,  22.297142465, 114.176071114,    7.8209,  2, 11,  0.0772,  0.0783,  0.1606, -0.0749, -0.1095,  0.1043,  0.00,   1.0
2158, 95784.000,  22.297236161, 114.175559238,  175.6720,  2,  7,  1.7676,  8.9746, 28.5717, -3.9813,-16.0130,  7.1031,  0.00,   1.2
2158, 95785.000,  22.297159458, 114.176066234,    0.0956,  2,  8,  0.9443,  0.1807,  4.0044, -0.2952,  0.5136, -1.9304,  0.00,   1.0
2158, 95786.000,  22.297096431, 114.175984555,    7.0189,  2,  7,  1.1705,  1.4730,  1.4156,  1.1884,  0.4926, -0.8595,  0.00,   1.0
2158, 95788.000,  22.297123984, 114.175993118,    5.5159,  2,  5,  0.5025,  1.0503,  0.7398,  0.6974,  0.7988,  0.4901,  0.00,   1.0
2158, 95789.000,  22.296856864, 114.175682002,   21.3041,  2,  6, 19.4524, 20.3955, 10.3211, 19.9149,-14.4709,-14.1486,  0.00,   1.1
2158, 95795.000,  22.297177483, 114.175733232,   -2.2118,  2,  7,  0.6625,  1.1625,  3.3699,  0.5926, -1.6160, -0.8107,  0.00, 422.0
2158, 95796.000,  22.297172493, 114.175671781,    0.8802,  2,  9,  0.4069,  0.7943,  2.2895,  0.3474, -1.0762, -0.4173,  0.00,   2.3
2158, 95797.000,  22.297198042, 114.175626751,    2.8497,  2,  6,  1.4084,  1.0340,  4.8824,  0.7688,  0.4440,  2.4395,  0.00,   1.2
2158, 95798.000,  22.297232055, 114.175540724,   29.1435,  2,  4,  7.8961, 28.1915, 11.9651, 14.8252, 13.1833,  7.6678,  0.00, 999.9
2158, 95799.000,  22.297259795, 114.175513668,    0.9119,  1,  5,  0.4421,  0.7510,  2.7330,  0.5760,  1.4322,  1.0991,  0.00,   4.3
2158, 95800.000,  22.297299567, 114.175571603,   13.7310,  5,  2, 13.5232, 29.6727, 27.3727, 10.8786, -7.3660, 18.1323,  0.00,   0.0
2158, 95801.000,  22.297412751, 114.175524918,   24.1343,  2,  6,  1.4299,  2.4487,  8.0060,  1.7318,  4.1429,  3.2989,  0.00,   1.3
2158, 95803.000,  22.297490508, 114.175530295,    8.3862,  5,  2, 11.6060, 29.1974, 28.5229,-13.8090, -8.0055,-16.0378,  0.00,   0.0
2158, 95804.000,  22.297639129, 114.175666225,   10.8722,  5,  2,  7.9512, 29.0659, 29.8822, 14.6584, -4.4415,  8.7650,  0.00,   0.0
2158, 95805.000,  22.297664957, 114.175396482,   16.9600,  2,  5,  0.6504,  5.5028,  4.9715, -0.9265, -4.7047, -0.6208,  0.00,   1.3
2158, 95806.000,  22.297705278, 114.175682549,    3.9778,  5,  2, 12.4834, 28.6070, 28.7427,-15.6996, -8.8119,-15.3114,  0.00,   0.0
2158, 95807.000,  22.297852576, 114.175578424,    5.3339,  5,  2,  2.6324, 29.9992, 29.8948,  2.5232,  0.7312, -8.6607,  0.00,   0.0
2158, 95808.000,  22.297904558, 114.175598170,    4.6156,  5,  2, 13.2289, 29.6654, 27.3379, 10.9686, -7.4299, 18.2389,  0.00,   0.0
2158, 95809.000,  22.298018697, 114.175640802,   10.5422,  2,  4,  1.1442, 28.7889,  8.9430,  5.1190,-15.4952, -2.7187,  0.00,   1.5
2158, 95810.000,  22.298085939, 114.175639755,    5.7816,  5,  2, 13.2124, 29.6642, 27.3351, 10.9795, -7.4380, 18.2463,  0.00,   0.0
2158, 95811.000,  22.298192522, 114.175654598,    3.2051,  5, 13, 30.0000, 30.0000, 30.0000,  0.0000,  0.0000, -0.0000,  0.00,   0.0
2158, 95812.000,  22.298275769, 114.175711416,    4.3841,  5,  2, 12.4929, 28.6075, 28.7448,-15.6971, -8.8076,-15.3039,  0.00,   0.0
2158, 95813.000,  22.298397411, 114.175710675,    0.0759,  5, 13, 30.0000, 30.0000, 30.0000,  0.0000,  0.0000,  0.0000,  0.00,   0.0
2158, 95814.000,  22.298485969, 114.175735425,    3.3357,  5, 14, 30.0000, 30.0000, 30.0000, -0.0000,  0.0000,  0.0000,  0.00,   0.0
2158, 95815.000,  22.298535626, 114.175836665,   -1.4619,  5, 14, 30.0000, 30.0000, 30.0000, -0.0000,  0.0000,  0.0000,  0.00,   0.0
2158, 95828.000,  22.299475702, 114.175977767,   23.7550,  2,  4, 13.1688, 16.6387, 21.6960, 14.2188, 18.8167, 16.5357,  0.00,  12.6
2158, 95829.000,  22.299464301, 114.175892370,   10.8922,  1,  6,  0.0251,  0.0719,  0.0875,  0.0255,  0.0748,  0.0388,  0.00,   3.3
2158, 95833.000,  22.299790980, 114.175959402,    5.3325,  2,  4,  4.7964,  8.1473, 28.5889,  6.0569, 14.8780, 11.6147,  0.00,   1.7
2158, 95834.000,  22.299837101, 114.176035236,    0.6334,  5,  2, 13.3007, 29.6538, 27.3307, 11.0545, -7.4978, 18.2387,  0.00,   0.0
2158, 95835.000,  22.299921285, 114.176070851,    0.2776,  1,  4, 11.1959,  7.0489, 26.9253, -8.8835,-13.7762, 17.3623,  0.00,   6.1
2158, 95836.000,  22.300008362, 114.176079984,    1.0837,  2,  4, 11.2322,  7.5249, 26.9438, -8.9598,-13.6788, 17.3447,  0.00,   1.8
2158, 95837.000,  22.300076040, 114.176061895,   -0.3454,  5,  2, 13.2645, 29.6519, 27.3253, 11.0736, -7.5119, 18.2535,  0.00,   0.0
2158, 95838.000,  22.300153826, 114.176112390,   -0.8576,  5,  2, 13.2595, 29.6513, 27.3243, 11.0785, -7.5156, 18.2561,  0.00,   0.0
2158, 95839.000,  22.300251353, 114.176138211,    6.9315,  1,  4,  0.8544, 28.6931,  8.7169,  4.9512,-15.8147, -2.7290,  0.00,   3.4
2158, 95841.000,  22.300371423, 114.176158335,   16.4817,  2,  7,  1.2541,  1.1149,  4.4190,  0.7173,  1.4907,  2.2353,  0.00,   1.8
2158, 95842.000,  22.300366250, 114.176146656,   -2.7801,  5,  3,  3.3989,  1.9593, 29.7616,  2.4655,  7.2586,  9.9586,  0.00,   0.0
2158, 95844.000,  22.300341240, 114.176064419,    3.3506,  2,  4,  0.7096,  1.3832,  2.7666,  0.7438,  1.4438,  0.7581,  0.00,   0.0
2158, 95845.000,  22.300873958, 114.174456063,   66.5593,  2,  5,  3.0213,  7.4784,  3.9052, -4.6349, -4.1254,  2.9674,  0.00,   1.7
2158, 95852.000,  22.300415087, 114.175838045,   14.5996,  2,  5,  2.5086,  7.3921,  2.6103, -4.2649, -4.0968,  2.3338,  0.00,   1.1
2158, 95858.000,  22.300351939, 114.176056266,    8.1868,  1,  4,  0.0086,  0.0140,  0.0297,  0.0076,  0.0146,  0.0101,  0.00,   4.3
2158, 95859.000,  22.300354847, 114.176059191,    8.7381,  2,  6,  0.2997,  0.6540,  0.7879, -0.2723, -0.1230,  0.2206,  0.00,   1.0
2158, 95863.000,  22.300451306, 114.176072619,   13.2699,  5, 20, 30.0000, 30.0000, 30.0000,  0.0000,  0.0000,  0.0000,  0.00,   0.0
2158, 95864.000,  22.300501635, 114.176107733,   15.6873,  5, 19, 30.0000, 30.0000, 30.0000,  0.0000,  0.0000, -0.0000,  0.00,   0.0
2158, 95865.000,  22.300573689, 114.176163047,    3.0796,  5, 14, 30.0000, 30.0000, 30.0000,  0.0000,  0.0000, -0.0000,  0.00,   0.0
2158, 95866.000,  22.300619577, 114.176175172,    8.8109,  5, 14, 30.0000, 30.0000, 30.0000,  0.0000, -0.0000,  0.0000,  0.00,   0.0
2158, 95867.000,  22.300681686, 114.176195482,   12.8407,  5, 14, 30.0000, 30.0000, 30.0000,  0.0000,  0.0000,  0.0000,  0.00,   0.0
2158, 95868.000,  22.300771600, 114.176232729,   -2.9885,  5, 16, 30.0000, 30.0000, 30.0000, -0.0000,  0.0000,  0.0000,  0.00,   0.0
2158, 95869.000,  22.300826871, 114.176316197,   -2.4699,  5, 15, 30.0000, 30.0000, 30.0000, -0.0000,  0.0000,  0.0000,  0.00,   0.0
2158, 95870.000,  22.300898554, 114.176365082,   -1.4537,  5, 15, 30.0000, 30.0000, 30.0000,  0.0000,  0.0000, -0.0000,  0.00,   0.0
2158, 95871.000,  22.300961746, 114.176405954,   -3.8154,  5, 15, 30.0000, 30.0000, 30.0000,  0.0000, -0.0000,  0.0000,  0.00,   0.0
2158, 95872.000,  22.301090507, 114.176352593,    0.4406,  5, 15, 30.0000, 30.0000, 30.0000, -0.0000, -0.0000, -0.0000,  0.00,   0.0
2158, 95873.000,  22.301176855, 114.176342365,   -2.1658,  5, 16, 30.0000, 30.0000, 30.0000, -0.0000, -0.0000,  0.0000,  0.00,   0.0
2158, 95874.000,  22.301267838, 114.176363592,    2.4540,  2,  4,  1.1581, 28.6740, 11.4067,  4.6596,-15.6097, -3.1241,  0.00,   0.0
2158, 95875.000,  22.301354506, 114.176399819,    1.0743,  5, 17, 30.0000, 30.0000, 30.0000,  0.0000,  0.0000,  0.0000,  0.00,   0.0
2158, 95876.000,  22.301427233, 114.176334650,    5.6997,  5,  2, 13.4834, 29.6346, 27.3265, 11.1851, -7.6022, 18.2146,  0.00,   0.0
2158, 95878.000,  22.301627308, 114.176518569,    1.5141,  5, 16, 30.0000, 30.0000, 30.0000,  0.0000,  0.0000,  0.0000,  0.00,   0.0
2158, 95879.000,  22.301714851, 114.176565791,    0.6928,  5, 18, 30.0000, 30.0000, 30.0000,  0.0000,  0.0000,  0.0000,  0.00,   0.0
2158, 95880.000,  22.301774751, 114.176593986,    9.0629,  5, 18, 30.0000, 30.0000, 30.0000,  0.0000,  0.0000,  0.0000,  0.00,   0.0
2158, 95881.000,  22.301833830, 114.176625355,    7.7987,  5, 19, 30.0000, 30.0000, 30.0000,  0.0000,  0.0000,  0.0000,  0.00,   0.0
2158, 95882.000,  22.301904905, 114.176692781,    4.7559,  5, 18, 30.0000, 30.0000, 30.0000,  0.0000, -0.0000,  0.0000,  0.00,   0.0
2158, 95883.000,  22.301973419, 114.176723416,    5.8912,  5, 16, 30.0000, 30.0000, 30.0000, -0.0000,  0.0000,  0.0000,  0.00,   0.0
2158, 95884.000,  22.302020229, 114.176714544,    8.4373,  5, 16, 30.0000, 30.0000, 30.0000,  0.0000,  0.0000,  0.0000,  0.00,   0.0
2158, 95885.000,  22.302063930, 114.176712279,    7.9692,  5, 17, 30.0000, 30.0000, 30.0000,  0.0000,  0.0000,  0.0000,  0.00,   0.0
2158, 95886.000,  22.302104697, 114.176706525,    7.9781,  5, 21, 30.0000, 30.0000, 30.0000,  0.0000,  0.0000,  0.0000,  0.00,   0.0
2158, 95887.000,  22.302129515, 114.176716722,    9.3379,  5,  2, 27.9159, 11.5742, 29.8325,-17.4379,  9.3609,  5.8978,  0.00,   0.0
2158, 95889.000,  22.302260403, 114.176776984,   21.5004,  1,  4, 12.3166,  1.7604, 27.2984, -4.6563, -6.9319, 18.3364,  0.00,   3.5
2158, 95890.000,  22.302285746, 114.176769804,   30.6177,  2,  6,  3.2212,  1.0912,  8.9047,  0.7823,  2.2772,  4.5977,  0.00,   1.5
2158, 95891.000,  22.302220621, 114.176774052,   15.9160,  2,  8,  0.6342,  0.6947,  3.3771,  0.2898,  0.9849,  0.3815,  0.00,   1.6
2158, 95892.000,  22.302205790, 114.176750973,    7.1914,  2,  6,  0.4729,  0.5690,  2.7339,  0.2503,  0.7369, -0.2327,  0.00,   1.9
2158, 95893.000,  22.302212724, 114.176752231,   11.1701,  2,  6,  0.3987,  0.4990,  2.4283,  0.2192,  0.6327, -0.3281,  0.00,   1.7
2158, 95894.000,  22.302211776, 114.176745871,    9.1422,  2,  6,  0.3503,  0.4461,  2.1487,  0.2035,  0.5343, -0.3142,  0.00,   2.3
2158, 95895.000,  22.302212142, 114.176741957,    7.0321,  2,  8,  0.3149,  0.4060,  1.8946,  0.1927,  0.4535, -0.2732,  0.00,   1.1
2158, 95896.000,  22.302212322, 114.176738339,    5.4997,  2,  6,  0.2901,  0.3768,  1.7626,  0.1802,  0.4126, -0.2687,  0.00,   1.0
2158, 95897.000,  22.302211888, 114.176734530,    4.6213,  1,  6,  0.0185,  0.0164,  0.1287,  0.0156,  0.0403,  0.0438,  0.00,   4.5
2158, 95898.000,  22.302211958, 114.176732791,    3.0557,  1,  6,  0.0176,  0.0158,  0.1215,  0.0147,  0.0378,  0.0408,  0.00,   5.4
2158, 95899.000,  22.302212519, 114.176731236,    2.2105,  2,  6,  0.2434,  0.3181,  1.5241,  0.1570,  0.3477, -0.2205,  0.00,   1.8
2158, 95900.000,  22.302212631, 114.176730081,    1.5827,  2,  8,  0.2247,  0.3016,  1.4406,  0.1435,  0.3258, -0.2194,  0.00,   1.2
2158, 95901.000,  22.302211109, 114.176731595,    4.2114,  2, 11,  0.2086,  0.2819,  1.2006,  0.1397,  0.2401, -0.1599,  0.00,   1.7
2158, 95902.000,  22.302210493, 114.176732434,    5.3629,  2,  9,  0.1964,  0.2673,  1.0666,  0.1342,  0.1885, -0.1283,  0.00,   1.0
2158, 95903.000,  22.302210789, 114.176733979,    6.1465,  2,  9,  0.1890,  0.2563,  0.9658,  0.1318,  0.1480, -0.1047,  0.00,   1.1
2158, 95904.000,  22.302211925, 114.176735495,    7.5158,  2,  9,  0.1813,  0.2501,  0.8632,  0.1326,  0.0777, -0.0526,  0.00,   1.6
2158, 95905.000,  22.302213229, 114.176736533,    7.9859,  2,  6,  0.1763,  0.2469,  0.8211,  0.1300,  0.0527, -0.0579,  0.00,   1.3
2158, 95906.000,  22.302214580, 114.176738293,    8.3453,  2,  8,  0.1714,  0.2399,  0.7826,  0.1262,  0.0507, -0.0572,  0.00,   1.3
2158, 95907.000,  22.302216683, 114.176740444,    8.5871,  2,  7,  0.1736,  0.2336,  0.7504,  0.1221,  0.0476, -0.0352,  0.00,   2.8
2158, 95908.000,  22.302222580, 114.176743070,    9.4821,  2,  7,  0.1698,  0.2307,  0.7098,  0.1214, -0.0449,  0.0500,  0.00,   1.0
2158, 95909.000,  22.302226208, 114.176747734,    7.8074,  1,  4, 12.3416,  1.7095, 27.2904, -4.5931, -6.8300, 18.3523,  0.00, 999.9
2158, 95910.000,  22.302233823, 114.176779124,    4.5991,  1,  4,  9.1189, 13.8355, 25.0085,-11.2322,-18.6012, 15.1013,  0.00,  12.6
2158, 95911.000,  22.302130281, 114.176784395,  -26.0742,  2,  6,  4.3420,  0.6080,  9.6443, -1.5621, -2.3332,  6.4605,  0.00,   1.1
2158, 95912.000,  22.302287493, 114.176779363,    3.5216,  1,  4, 12.3453,  1.7020, 27.2892, -4.5837, -6.8148, 18.3546,  0.00,  11.4
2158, 95913.000,  22.302328842, 114.176796461,    2.6185,  1,  4, 12.3465,  1.6995, 27.2888, -4.5805, -6.8097, 18.3554,  0.00,   8.8
2158, 95914.000,  22.302379233, 114.176816826,    1.9036,  5,  2, 27.8244, 11.7105, 29.8115,-17.6009,  9.6302,  6.1369,  0.00,   0.0
2158, 95915.000,  22.302311472, 114.176889232,   -3.6814,  1,  4, 23.5567, 11.3644, 14.6949,-16.3618, 12.9227,-18.6052,  0.00,   3.9
2158, 95916.000,  22.302466203, 114.176880832,    1.1858,  2, 12,  0.6642,  0.3701,  2.0904, -0.3354,  0.5752,  0.6572,  0.00,   1.0
2158, 95917.000,  22.302562417, 114.176897896,    2.1297,  2, 13,  0.3895,  0.2771,  1.3893, -0.1817,  0.3689,  0.4095,  0.00,   1.1
2158, 95918.000,  22.302630818, 114.176930418,    2.6346,  2, 13,  0.3095,  0.2492,  1.1379, -0.1449,  0.3072,  0.2908,  0.00,   1.3
2158, 95919.000,  22.302697110, 114.176964064,    3.4122,  2, 14,  0.2609,  0.2274,  0.9546, -0.1155,  0.2479,  0.2570,  0.00,   2.3
2158, 95920.000,  22.302764012, 114.176998712,    3.3387,  2, 12,  0.2300,  0.2126,  0.8424, -0.0976,  0.2109,  0.2328,  0.00,   1.2
2158, 95921.000,  22.302827748, 114.177035481,    3.0025,  2, 12,  0.2080,  0.2012,  0.7625, -0.0854,  0.1851,  0.2140,  0.00,   2.4
2158, 95922.000,  22.302886421, 114.177075772,    3.0663,  2, 15,  0.1850,  0.1915,  0.6807, -0.0723,  0.1723,  0.1773,  0.00,   1.0
2158, 95923.000,  22.302934821, 114.177116908,    2.8713,  2, 15,  0.1727,  0.1826,  0.6313, -0.0641,  0.1536,  0.1705,  0.00,   1.3
2158, 95924.000,  22.302965884, 114.177168461,    2.9328,  2, 13,  0.1591,  0.1757,  0.5842, -0.0562,  0.1454,  0.1501,  0.00,   1.0
2158, 95925.000,  22.302976507, 114.177228053,    2.8695,  2, 15,  0.1465,  0.1687,  0.5445, -0.0505,  0.1320,  0.1253,  0.00,   1.0
2158, 95926.000,  22.302967741, 114.177292780,    2.9621,  2, 15,  0.1353,  0.1616,  0.4982, -0.0503,  0.1112,  0.0931,  0.00,   1.1
2158, 95927.000,  22.302945490, 114.177363512,    2.8337,  2, 12,  0.1289,  0.1558,  0.4718, -0.0472,  0.0945,  0.0750,  0.00,   1.1
2158, 95928.000,  22.302914267, 114.177442689,    2.7440,  2, 10,  0.1243,  0.1517,  0.4572, -0.0455,  0.0759,  0.0699,  0.00,   1.4
2158, 95929.000,  22.302876808, 114.177530429,    3.0601,  2,  6,  0.1425,  0.1570,  0.4743, -0.0758,  0.1092, -0.0971,  0.00,   1.1
2158, 95930.000,  22.302843258, 114.177619170,    1.2735,  5,  3, 10.3998,  5.5147, 27.5952, -7.5716, 12.3331,-16.9389,  0.00,   0.0
2158, 95931.000,  22.302798585, 114.177720204,    3.1471,  1,  4,  2.4067,  3.8075, 29.6599,  3.0271,-10.6268, -8.4488,  0.00,  14.2
2158, 95932.000,  22.302765423, 114.177811694,    2.7431,  5, 22, 30.0000, 30.0000, 30.0000,  0.0000,  0.0000,  0.0000,  0.00,   0.0
2158, 95933.000,  22.302723506, 114.177919032,   -3.1856,  5,  2, 12.4265, 28.6041, 28.7767,-15.7152, -8.7575,-15.2162,  0.00,   0.0
2158, 95934.000,  22.302677424, 114.178024154,   -1.2651,  1,  4,  2.4020,  3.7978, 29.6616,  3.0203,-10.6135, -8.4407,  0.00,   7.0
2158, 95935.000,  22.302628678, 114.178117898,    5.2202,  2,  5,  0.8399,  0.6231,  3.9634, -0.4351, -0.8111, -1.6093,  0.00,   3.8
2158, 95936.000,  22.302584709, 114.178213807,    9.6982,  2,  4,  2.4409,  3.8231, 29.6627,  2.9817,-10.6040, -8.4359,  0.00,   1.8
2158, 95937.000,  22.302578005, 114.178276736,   12.2022,  5,  2, 20.3366, 22.4745, 29.6873,-20.9351, -9.2654, -9.7611,  0.00,   0.0
2158, 95938.000,  22.302562481, 114.178410125,    2.8885,  5,  2, 15.0801, 28.0326, 28.7436, 16.6467,  9.5811,-14.9266,  0.00,   0.0
2158, 95939.000,  22.302511651, 114.178514477,    4.0983,  5, 19, 30.0000, 30.0000, 30.0000, -0.0000,  0.0000,  0.0000,  0.00,   0.0
2158, 95941.000,  22.302485611, 114.178723666,    9.1003,  5, 17, 30.0000, 30.0000, 30.0000, -0.0000,  0.0000, -0.0000,  0.00,   0.0
2158, 95949.000,  22.302492336, 114.179478772,   55.3187,  2,  4,  6.6327,  5.0530, 28.8695,  5.7035, 11.8581, 13.7321,  0.00,  10.3
2158, 95958.000,  22.301894906, 114.179640046,   -0.2970,  2,  8,  0.5029,  1.0755,  2.4759,  0.1326, -0.8095, -0.3164,  0.00,   4.2
2158, 95959.000,  22.301865112, 114.179619794,    1.1271,  2,  9,  0.3701,  0.7478,  1.5306, -0.1453, -0.3598, -0.0935,  0.00,   1.1
2158, 95960.000,  22.301837879, 114.179614557,    4.1856,  1,  9,  0.2561,  0.3859,  0.2044, -0.3133, -0.2720,  0.2253,  0.00,   4.1
2158, 95961.000,  22.301823917, 114.179615019,    3.0812,  2, 10,  0.2595,  0.5226,  1.0026, -0.1074, -0.1010, -0.1232,  0.00,   1.5
2158, 95962.000,  22.301816909, 114.179615170,    3.5073,  2, 10,  0.2288,  0.4645,  0.8766, -0.0891,  0.0637, -0.1346,  0.00,   1.2
2158, 95963.000,  22.301816243, 114.179611692,    2.9167,  2, 11,  0.2047,  0.3986,  0.7829, -0.0406, -0.0697, -0.1210,  0.00,   1.2
2158, 95964.000,  22.301813887, 114.179613425,    5.1908,  2, 13,  0.1854,  0.3521,  0.6724,  0.0213, -0.0467, -0.0881,  0.00,   1.0
2158, 95965.000,  22.301813796, 114.179618377,    5.0083,  2, 13,  0.1693,  0.3226,  0.6079,  0.0400, -0.0916, -0.0928,  0.00,   1.0
2158, 95966.000,  22.301814283, 114.179620769,    4.4897,  2, 11,  0.1590,  0.3026,  0.5760,  0.0452, -0.0746, -0.0921,  0.00,   1.0
2158, 95967.000,  22.301814905, 114.179621870,    3.9730,  2, 12,  0.1498,  0.2791,  0.5468,  0.0553, -0.0802, -0.0875,  0.00,   1.3
2158, 95968.000,  22.301815127, 114.179621707,    3.5421,  2, 12,  0.1422,  0.2606,  0.5217,  0.0598, -0.0824, -0.0836,  0.00,   1.1
2158, 95969.000,  22.301811776, 114.179621499,    3.3129,  2, 12,  0.1356,  0.2454,  0.4996,  0.0619, -0.0831, -0.0803,  0.00,   1.1
2158, 95970.000,  22.301800735, 114.179620728,    3.2146,  2,  9,  0.1315,  0.2388,  0.4839,  0.0554, -0.0774, -0.0746,  0.00,   2.1
2158, 95971.000,  22.301777915, 114.179618381,    3.1379,  2,  9,  0.1276,  0.2326,  0.4695,  0.0497, -0.0726, -0.0695,  0.00,   2.8
2158, 95972.000,  22.301744592, 114.179610394,    3.0740,  2,  7,  0.1243,  0.2313,  0.4589,  0.0430, -0.0676, -0.0628,  0.00,   2.8
2158, 95973.000,  22.301701906, 114.179593141,    2.8749,  2,  7,  0.1213,  0.2293,  0.4491,  0.0367, -0.0622, -0.0568,  0.00,   1.2
2158, 95974.000,  22.301652770, 114.179564603,    2.9731,  2,  5,  0.1218,  0.2303,  0.4492,  0.0438,  0.0077, -0.0104,  0.00,   1.6
2158, 95975.000,  22.301623873, 114.179532371,    5.7532,  5, 21, 30.0000, 30.0000, 30.0000,  0.0000,  0.0000,  0.0000,  0.00,   0.0
2158, 95976.000,  22.301552997, 114.179458212,    4.2173,  5,  2, 18.2547, 24.7591, 29.2306,-20.0825,-10.6941,-12.6774,  0.00,   0.0
2158, 95977.000,  22.301474745, 114.179423040,    9.1092,  2,  4,  7.4036, 18.8569, 22.6019,-11.6570,-20.2914, 12.1814,  0.00, 999.9
2158, 95978.000,  22.301417501, 114.179378599,    6.2174,  5,  2, 13.7045, 29.5766, 27.2965, 11.5770, -7.9061, 18.2248,  0.00,   0.0
2158, 95979.000,  22.301474332, 114.179272441,    0.8288,  5, 16, 30.0000, 30.0000, 30.0000,  0.0000,  0.0000,  0.0000,  0.00,   0.0
2158, 95981.000,  22.301449409, 114.179052750,   -9.1155,  5, 14, 30.0000, 30.0000, 30.0000, -0.0000,  0.0000,  0.0000,  0.00,   0.0
2158, 95982.000,  22.301401125, 114.179049740,  -12.2853,  5,  2, 17.5754, 24.8870, 29.5390,-20.1815, -9.3685,-11.2863,  0.00,   0.0
2158, 95983.000,  22.301334902, 114.179027123,   -1.9829,  5, 14, 30.0000, 30.0000, 30.0000,  0.0000, -0.0000,  0.0000,  0.00,   0.0
2158, 95984.000,  22.301306456, 114.178985728,    2.3391,  5, 15, 30.0000, 30.0000, 30.0000,  0.0000,  0.0000, -0.0000,  0.00,   0.0
2158, 95985.000,  22.301283832, 114.178955555,    7.0812,  5, 16, 30.0000, 30.0000, 30.0000, -0.0000,  0.0000, -0.0000,  0.00,   0.0
2158, 95986.000,  22.301264351, 114.178920170,    3.7590,  5, 14, 30.0000, 30.0000, 30.0000, -0.0000,  0.0000,  0.0000,  0.00,   0.0
2158, 95987.000,  22.301235243, 114.178914569,   -6.3560,  5, 14, 30.0000, 30.0000, 30.0000,  0.0000,  0.0000,  0.0000,  0.00,   0.0
2158, 96001.000,  22.301049116, 114.179031636,   13.8701,  2,  4, 12.8474,  8.9622, 25.7097,-10.7099, 14.9808,-18.0521,  0.00,   1.2
2158, 96002.000,  22.301143440, 114.178961546,   -7.2877,  2,  5,  1.3865,  1.2273,  2.0032, -1.2295, -0.5589, -0.5497,  0.00,   1.3
2158, 96004.000,  22.301047617, 114.179032729,   13.5106,  2,  4, 12.7842,  8.8623, 25.6997,-10.6364, 15.0198,-18.0758,  0.00,   1.3
2158, 96005.000,  22.301043003, 114.179036455,   14.2109,  1,  4, 12.7436,  8.8082, 25.6908,-10.5947, 15.0429,-18.0940,  0.00,  15.6
2158, 96006.000,  22.301140417, 114.178964052,   -7.5396,  1,  5,  0.0234,  0.0178,  0.0240, -0.0189, -0.0139,  0.0122,  0.00,  15.6
2158, 96007.000,  22.301140277, 114.178964140,   -7.5490,  1,  5,  0.0234,  0.0178,  0.0240, -0.0189, -0.0139,  0.0122,  0.00,   3.9
2158, 96008.000,  22.301229837, 114.178779598,   31.3015,  2,  4,  6.8108, 12.8631, 26.2527, -9.3456,-18.3604, 13.3186,  0.00,   2.3
2158, 96009.000,  22.301230909, 114.178776765,   31.8929,  2,  4,  6.8156, 12.8665, 26.2466, -9.3518,-18.3636, 13.3296,  0.00,   1.0
2158, 96010.000,  22.300993248, 114.179049980,   35.5935,  2,  4, 20.3635, 22.4099, 29.7219,-20.9616, -9.0158, -9.4754,  0.00,   1.1
2158, 96011.000,  22.300963151, 114.179095091,   31.3101,  2,  4, 12.7328,  8.8179, 25.7142,-10.5928, 15.0270,-18.0712,  0.00,   2.3
2158, 96012.000,  22.301021374, 114.179010736,   38.0496,  1,  4, 20.3607, 22.4054, 29.7227,-20.9655, -9.0102, -9.4689,  0.00,  15.6
2158, 96014.000,  22.301217905, 114.178802556,   26.0718,  1,  4,  6.8340, 12.8848, 26.2160, -9.3838,-18.3790, 13.3851,  0.00,   4.0
2158, 96015.000,  22.301214301, 114.178807736,   25.2663,  2,  4,  6.8694, 12.8955, 26.2124, -9.4027,-18.3780, 13.3876,  0.00,   1.7
2158, 96016.000,  22.301135053, 114.178967046,   -8.0274,  2,  5,  0.6286,  0.5354,  0.8905, -0.5354, -0.4904,  0.3089,  0.00,   1.0
2158, 96024.000,  22.301096629, 114.178997994,   -1.7355,  2,  4, 12.7195,  8.9121, 25.7741,-10.6286, 14.9641,-18.0104,  0.00,   1.2
2158, 96025.000,  22.301206932, 114.178822919,   20.7259,  2,  4,  7.0561, 12.9939, 26.1691, -9.5559,-18.3749, 13.4460,  0.00,   1.0
2158, 96033.000,  22.301194437, 114.178847086,   15.0209,  1,  4,  7.0383, 12.9907, 26.1095, -9.5620,-18.4168, 13.5560,  0.00,  28.1
2158, 96034.000,  22.301211107, 114.178814057,   21.8813,  1,  4,  7.0490, 12.9963, 26.1038, -9.5714,-18.4188, 13.5649,  0.00,   4.7
2158, 96035.000,  22.301209995, 114.178816337,   21.2300,  2,  4,  7.0975, 13.0181, 26.1032, -9.6043,-18.4117, 13.5601,  0.00,   1.7
2158, 96036.000,  22.301210449, 114.178815475,   21.5632,  1,  4,  7.0706, 13.0074, 26.0924, -9.5901,-18.4227, 13.5826,  0.00,   3.3
2158, 96052.000,  22.301249061, 114.178723295,   42.1647,  2,  4,  7.3407, 13.1445, 26.0154, -9.8071,-18.4263, 13.6845,  0.00,   1.1
2158, 96059.000,  22.300981700, 114.179021690,   11.3119,  2,  5,  0.8822,  1.3646,  3.7367,  0.7386,  1.2093,  0.5550,  0.00,   1.7
2158, 96062.000,  22.300746486, 114.179089851,  -20.0800,  2,  5,  3.0569,  2.4969, 14.2385,  2.5864,  5.6561,  6.4914,  0.00,  17.4
2158, 96064.000,  22.300647535, 114.179236633,   -5.6209,  1,  7,  0.3275,  0.5212,  2.0545, -0.4121, -1.0342,  0.8196,  0.00,   6.5
2158, 96065.000,  22.300733213, 114.178896020,  133.5714,  2,  4,  3.4186,  9.2496, 28.3576, -5.5311,-16.1471,  9.7469,  0.00,  46.6
2158, 96069.000,  22.300671308, 114.179913325,   82.8291,  1,  4, 14.1031, 11.9082, 23.6495, 12.9593, 16.7816, 18.2628,  0.00,   5.2
2158, 96070.000,  22.300482762, 114.179882195,   50.4446,  1,  4, 14.1014, 11.9021, 23.6536, 12.9551, 16.7787, 18.2633,  0.00,  11.6
2158, 96072.000,  22.300418347, 114.180048702,   55.5004,  2,  4, 14.1238, 11.9582, 23.6889, 12.9856, 16.7306, 18.2384,  0.00,   3.0
2158, 96076.000,  22.299814378, 114.179692640,   62.8297,  2,  4, 14.1456, 13.8886, 24.2520, 14.0060,-16.8189,-16.7222,  0.00,   2.0
2158, 96095.000,  22.298974297, 114.178697679,   -6.1854,  2,  9,  0.4803,  1.0100,  3.6756, -0.3253, -1.6752,  0.4418,  0.00,   2.6
2158, 96096.000,  22.298929199, 114.178642919,   -2.4700,  2, 11,  0.3358,  0.5966,  2.1334, -0.1937, -0.8122,  0.0932,  0.00,  51.7
2158, 96097.000,  22.298894676, 114.178568557,   -1.4615,  2, 12,  0.2733,  0.4744,  1.5540, -0.1579, -0.5949, -0.1425,  0.00,  51.0
2158, 96098.000,  22.298861871, 114.178516561,   -2.2283,  2,  8,  0.2629,  0.4453,  1.3527, -0.1869, -0.5567,  0.0482,  0.00,   1.2
2158, 96099.000,  22.298822408, 114.178467379,   -1.6264,  2,  7,  0.8810,  1.3292,  2.1561, -0.9208, -0.5598,  0.9955,  0.00,   1.3
2158, 96100.000,  22.298787819, 114.178420075,   -1.4764,  2,  5,  0.8304,  1.2498,  1.7376, -0.9283, -0.7449,  0.8187,  0.00,   1.0
2158, 96101.000,  22.298754069, 114.178375647,   -1.4600,  2,  5,  4.8855,  6.3165,  4.5994, -5.5426, -5.2269,  4.6220,  0.00,   3.0
2158, 96102.000,  22.298789688, 114.178214181,   20.9479,  5,  3,  8.9445, 14.4138, 24.9532,-11.3320,-18.7625, 14.6451,  0.00,   0.0
2158, 96103.000,  22.298702704, 114.178272746,    4.0345,  2,  5,  2.2665,  3.3621,  5.0075, -2.7017, -3.4058,  2.3827,  0.00,   1.9
2158, 96117.000,  22.298513557, 114.178026481,   -5.6307,  2,  5,  1.1575,  1.0433,  2.9797, -1.0291,  1.1042, -1.5987,  0.00,   1.1
2158, 96118.000,  22.298452017, 114.177999073,    1.7468,  1,  7,  0.0370,  0.0521,  0.0395, -0.0433, -0.0282,  0.0217,  0.00,   3.4
2158, 96119.000,  22.298404716, 114.177956300,    2.5513,  2,  7,  0.5933,  0.7392,  1.4470, -0.6043, -0.5867, -0.3100,  0.00,   2.1
2158, 96120.000,  22.298355261, 114.177902464,    2.9967,  2,  7,  0.5392,  0.6966,  1.2929, -0.5604, -0.6188,  0.1204,  0.00,   2.3
2158, 96121.000,  22.298293788, 114.177857755,    2.7121,  2,  7,  0.5042,  0.6642,  1.1918, -0.5303, -0.6233,  0.2591,  0.00,   1.9
2158, 96122.000,  22.298230221, 114.177799738,    4.8067,  2,  5,  1.3600,  0.9787,  3.8418, -1.0929,  1.5131, -2.1380,  0.00,   1.2
2158, 96128.000,  22.297905829, 114.177388766,    3.1203,  5, 17, 30.0000, 30.0000, 30.0000, -0.0000,  0.0000,  0.0000,  0.00,   0.0
2158, 96130.000,  22.297774198, 114.177244064,    8.2013,  1,  5,  0.8155,  0.4459,  2.4539, -0.6022,  1.0421, -1.4137,  0.00,   5.1
2158, 96131.000,  22.297733887, 114.177176747,   -5.5846,  2,  8,  0.5178,  0.6943,  3.1343, -0.2766, -0.9890, -0.7013,  0.00,   2.6
2158, 96132.000,  22.297616168, 114.177151353,   21.2364,  5, 17, 30.0000, 30.0000, 30.0000,  0.0000,  0.0000, -0.0000,  0.00,   0.0
2158, 96133.000,  22.297540534, 114.177046503,   36.6307,  5, 15, 30.0000, 30.0000, 30.0000,  0.0000,  0.0000,  0.0000,  0.00,   0.0
2158, 96135.000,  22.297474921, 114.176921734,    4.7186,  2,  6,  2.4564,  3.3678,  4.1800, -2.7484,  2.2824, -2.5389,  0.00,   1.2
2158, 96136.000,  22.297393117, 114.176884777,    9.2608,  2,  4,  1.7646,  2.4762,  3.3778, -1.9953,  1.2550, -1.6747,  0.00,   1.6
2158, 96137.000,  22.297371728, 114.176782226,    1.3238,  2,  6,  1.3713,  2.0692,  2.2906, -1.6290,  0.2732, -0.8233,  0.00,   1.0
2158, 96145.000,  22.297051459, 114.176270025,    7.8145,  1,  8,  1.2443,  0.1322,  3.7974,  0.4045,  0.7066,  2.1737,  0.00,   3.5
2158, 96146.000,  22.297011957, 114.176246868,  -15.4238,  2,  7,  0.9865,  0.6291,  3.0514,  0.5197,  0.6660,  1.5694,  0.00,   1.1
2158, 96147.000,  22.297022756, 114.176228313,  -17.6809,  2,  6,  0.9032,  0.5640,  2.6434,  0.5329,  0.7673,  1.4190,  0.00,   1.2
2158, 96149.000,  22.297088127, 114.176228637,   -3.1805,  2,  8,  0.5706,  0.4123,  1.7628,  0.2883,  0.3293,  0.8714,  0.00,   2.2
2158, 96150.000,  22.297106908, 114.176230078,    0.2273,  2, 10,  0.4415,  0.3527,  1.4956,  0.1834, -0.1071,  0.6733,  0.00,   1.3
2158, 96281.000,  22.302082425, 114.176671425,   -9.8367,  2,  8,  1.6400,  1.1722,  3.7856,  1.1526,  1.7045,  2.2197,  0.00,  17.6
2158, 96282.000,  22.302092148, 114.176679931,   -5.3090,  2,  8,  1.1966,  0.9160,  2.8808,  0.8832,  1.3895,  1.6679,  0.00,  37.9
2158, 96283.000,  22.302090242, 114.176680595,   -3.8026,  2,  9,  0.9798,  0.7222,  2.2785,  0.7071,  1.0897,  1.3394,  0.00,   1.2
2158, 96284.000,  22.302100107, 114.176685077,   -1.6366,  2,  9,  0.8409,  0.6146,  1.9454,  0.6039,  0.9256,  1.1469,  0.00,   1.2
2158, 96285.000,  22.302104288, 114.176686498,   -0.6005,  1,  4,  0.0194,  0.0189,  0.0519,  0.0166,  0.0277,  0.0292,  0.00,   3.8
2158, 96286.000,  22.302104413, 114.176684575,   -0.6369,  2,  4,  0.7048,  0.5539,  1.6959,  0.5261,  0.8267,  0.9853,  0.00,   1.3
2158, 96287.000,  22.302100469, 114.176677685,   -1.9509,  2,  7,  0.6672,  0.5011,  1.5515,  0.4785,  0.7455,  0.9095,  0.00,   1.3
2158, 96288.000,  22.302100934, 114.176677650,   -1.7690,  2,  5,  0.9046,  0.6178,  1.4875, -0.1964,  0.7732,  0.7769,  0.00,   1.7
2158, 96290.000,  22.302101400, 114.176677125,   -1.6214,  2,  6,  0.5757,  0.4468,  1.3866,  0.4184,  0.6707,  0.7965,  0.00,   1.4
2158, 96291.000,  22.302104071, 114.176678532,   -0.9880,  1,  6,  0.0189,  0.0187,  0.0486,  0.0163,  0.0269,  0.0278,  0.00,   3.5
2158, 96292.000,  22.302104257, 114.176678730,   -0.8897,  1,  5,  0.0228,  0.0207,  0.0901,  0.0194,  0.0372,  0.0417,  0.00,  24.2
2158, 96293.000,  22.302108465, 114.176688596,    0.6607,  1,  4,  7.4072, 15.6766, 24.4822, 10.7759, 19.5907, 13.4664,  0.00,   6.3
2158, 96294.000,  22.302106239, 114.176679897,   -0.5632,  2,  5,  0.4897,  0.4103,  1.2629,  0.3728,  0.6127,  0.7015,  0.00,   1.3
2158, 96295.000,  22.302103335, 114.176684342,    0.0820,  2,  4, 22.9828, 14.7900, 12.4419,-18.4278, 13.5420,-16.8517,  0.00,   2.7
2158, 96296.000,  22.302105980, 114.176685102,    0.3816,  2,  4, 22.9814, 14.7975, 12.4334,-18.4324, 13.5413,-16.8471,  0.00,   1.1
2158, 96297.000,  22.302111911, 114.176684901,    0.8166,  1,  6,  0.0189,  0.0187,  0.0486,  0.0163,  0.0269,  0.0278,  0.00,  11.1
2158, 96298.000,  22.302113001, 114.176684325,    0.8017,  1,  5,  0.4684,  0.2855,  0.1764, -0.3648,  0.2214, -0.2804,  0.00,  17.9
2158, 96299.000,  22.302125287, 114.176679831,    0.8010,  2,  5,  2.3249,  1.3533,  1.3162, -1.6937,  1.0967, -1.0951,  0.00,   1.1
2158, 96300.000,  22.302124170, 114.176680799,    0.2195,  1,  4,  1.8655,  5.4109, 29.4490,  3.1767, 12.6232,  7.4111,  0.00,   4.1
2158, 96301.000,  22.302100843, 114.176675008,   -2.8444,  2,  5,  2.6285,  1.9378,  5.4056,  2.2453,  3.2207,  3.7545,  0.00,   1.7
2158, 96302.000,  22.302139774, 114.176714978,   -4.2140,  5,  2, 26.6581, 14.9648, 29.4613,-18.9151, 12.1310,  8.8250,  0.00,   0.0
2158, 96303.000,  22.302159158, 114.176724689,   -4.4386,  5,  2, 26.6502, 14.9399, 29.4595,-18.9308, 12.1441,  8.8370,  0.00,   0.0
2158, 96304.000,  22.302172118, 114.176755973,   -0.1999,  2,  4, 13.3234,  2.8047, 27.2240, -4.4844, -4.1759, 18.3824,  0.00,   7.1
2158, 96305.000,  22.302220964, 114.176765644,    0.1651,  5,  2, 26.6419, 14.9378, 29.4572,-18.9424, 12.1574,  8.8517,  0.00,   0.0
2158, 96306.000,  22.302262057, 114.176784305,    0.6238,  2,  4, 13.0310,  2.0943, 27.1897, -3.9029, -4.4375, 18.4855,  0.00,   2.5
2158, 96307.000,  22.302305794, 114.176796048,   -0.9039,  5,  2, 26.6437, 14.9998, 29.4564,-18.9270, 12.1535,  8.8538,  0.00,   0.0
2158, 96308.000,  22.302365100, 114.176812487,    0.5618,  2,  4, 12.9338,  2.0333, 27.1780, -3.6550, -4.5212, 18.5201,  0.00,   1.8
2158, 96309.000,  22.302416215, 114.176835941,   -0.0536,  5,  2, 26.6312, 14.9715, 29.4534,-18.9495, 12.1738,  8.8736,  0.00,   0.0
2158, 96310.000,  22.302463589, 114.176841674,   -8.7996,  2,  7,  1.2491,  1.1082,  3.6696, -0.9866,  1.4270, -0.8827,  0.00,   1.5
2158, 96311.000,  22.302515056, 114.176885670,   -2.4386,  2,  9,  0.5839,  0.5170,  2.3228, -0.2964, -0.1126,  0.7732,  0.00,   1.3
2158, 96312.000,  22.302590804, 114.176920723,   -0.4853,  2, 11,  0.3924,  0.4086,  1.5493, -0.1732,  0.2301,  0.4246,  0.00,   1.5
2158, 96313.000,  22.302664454, 114.176955027,    1.1263,  2, 12,  0.3136,  0.3497,  1.1795, -0.1237,  0.1913,  0.3486,  0.00,   1.0
2158, 96314.000,  22.302741741, 114.176991605,    3.0940,  2, 15,  0.2519,  0.3089,  0.9312, -0.0787,  0.2048,  0.2468,  0.00,   1.1
2158, 96315.000,  22.302813228, 114.177029301,    3.9918,  2, 14,  0.2170,  0.2748,  0.7733, -0.0474,  0.1607,  0.2060,  0.00,   1.2
2158, 96316.000,  22.302874589, 114.177064911,    4.4271,  2, 13,  0.1940,  0.2544,  0.6940, -0.0304,  0.1586,  0.1764,  0.00,   1.1
2158, 96317.000,  22.302925262, 114.177100540,    4.3963,  2, 12,  0.1818,  0.2386,  0.6481, -0.0300,  0.1471,  0.1724,  0.00,   1.2
2158, 96318.000,  22.302963080, 114.177146424,    4.3902,  2, 15,  0.1674,  0.2237,  0.5985, -0.0089,  0.1415,  0.1551,  0.00,   1.1
2158, 96319.000,  22.302982041, 114.177197163,    4.1967,  2, 17,  0.1520,  0.2106,  0.5386, -0.0124,  0.1280,  0.1225,  0.00,   1.1
2158, 96320.000,  22.302986290, 114.177248331,    4.0524,  2, 17,  0.1421,  0.1999,  0.4941,  0.0072,  0.1188,  0.1020,  0.00,   1.6
2158, 96321.000,  22.302974614, 114.177299195,    4.0829,  2, 15,  0.1329,  0.1911,  0.4619, -0.0127,  0.1107,  0.0843,  0.00,   1.3
2158, 96322.000,  22.302953510, 114.177351600,    3.7321,  2,  6,  0.1299,  0.1872,  0.4600, -0.0155,  0.1057,  0.0794,  0.00,   1.1
2158, 96323.000,  22.302929960, 114.177403150,    5.3059,  1,  4,  1.7792,  2.5432, 29.8390,  2.1271, -8.7113, -7.2862,  0.00,  21.0
2158, 96324.000,  22.302908646, 114.177455241,    3.8280,  2,  5,  0.1275,  0.1802,  0.4551, -0.0183,  0.0909,  0.0620,  0.00,   2.5
2158, 96325.000,  22.302888566, 114.177502609,    3.8668,  2,  5,  0.1256,  0.1769,  0.4489, -0.0207,  0.0840,  0.0510,  0.00,   2.3
2158, 96326.000,  22.302871184, 114.177544705,    3.6871,  2,  5,  0.1240,  0.1737,  0.4633, -0.0241,  0.0746,  0.0520,  0.00,   1.3
2158, 96327.000,  22.302856390, 114.177578578,    4.2888,  1,  4,  1.7725,  2.5308, 29.8405,  2.1179, -8.6902, -7.2726,  0.00,   5.2
2158, 96328.000,  22.302844711, 114.177604690,    4.8726,  2,  4,  1.7753,  2.5336, 29.8408,  2.1158, -8.6848, -7.2692,  0.00,   2.0
2158, 96329.000,  22.302851101, 114.177608658,    4.6321,  5,  2, 20.5043, 22.1061, 29.8482,-21.0746, -7.8184, -8.1244,  0.00,   0.0
2158, 96330.000,  22.302823623, 114.177653710,    4.9565,  2,  4,  1.7718,  2.5271, 29.8416,  2.1111, -8.6742, -7.2624,  0.00,   1.0
2158, 96331.000,  22.302806256, 114.177681812,    7.8094,  2,  4,  1.7701,  2.5238, 29.8419,  2.1088, -8.6689, -7.2590,  0.00,   1.7
2158, 96332.000,  22.302791273, 114.177719782,    5.9130,  2,  4,  1.9757,  0.8926, 29.9488,  1.1730,  3.2155,  7.1697,  0.00,   1.1
2158, 96333.000,  22.302762162, 114.177758053,    3.8907,  5,  2, 23.1750, 19.0688, 29.9887, 21.0049, -4.3698,  3.9632,  0.00,   0.0
2158, 96334.000,  22.302722451, 114.177793862,    5.8982,  5,  2, 23.1792, 19.0636, 29.9887, 21.0040, -4.3684,  3.9610,  0.00,   0.0
2158, 96340.000,  22.302578427, 114.178181158,   13.4222,  5,  2, 20.5162, 22.0999, 29.8519,-21.0727, -7.7714, -8.0721,  0.00,   0.0
2158, 96341.000,  22.302562522, 114.178259430,   21.1018,  5,  2, 20.5148, 22.0974, 29.8522,-21.0748, -7.7679, -8.0682,  0.00,   0.0
2158, 96356.000,  22.302283280, 114.179548271,   27.9487,  5,  2, 23.2756, 18.9534, 29.9891, 20.9796, -4.3372,  3.9129,  0.00,   0.0
2158, 96359.000,  22.302082259, 114.179688797,    2.2122,  5, 15, 30.0000, 30.0000, 30.0000, -0.0000, -0.0000, -0.0000,  0.00,   0.0
2158, 96360.000,  22.301974537, 114.179643444,   -5.5173,  5,  2, 15.9933, 27.1345, 28.4859,-18.0211,-10.9731,-15.4547,  0.00,   0.0
2158, 96361.000,  22.301929345, 114.179590612,    2.4887,  5,  3,  0.7357, 18.0146, 24.1073, -1.4777,-20.6963,  1.5874,  0.00,   0.0
2158, 96362.000,  22.301863561, 114.179624857,   -0.4503,  2,  8,  0.4880,  1.0667,  2.5175,  0.2460,  0.2744,  0.3039,  0.00,  10.9
2158, 96363.000,  22.301801388, 114.179621318,    3.2205,  2, 10,  0.3411,  0.7375,  1.4611, -0.0783,  0.2218, -0.1235,  0.00,   1.3
2158, 96364.000,  22.301743673, 114.179597545,    3.8706,  2,  9,  0.2937,  0.6025,  1.1500, -0.1256,  0.1764, -0.0614,  0.00,   1.4
2158, 96365.000,  22.301692189, 114.179576229,    3.9377,  2,  7,  0.2801,  0.5854,  1.0439, -0.1168,  0.2373,  0.1853,  0.00,   1.5
2158, 96366.000,  22.301650726, 114.179530209,    3.1298,  2,  4, 16.5708, 25.0076,  2.0610,-20.3473, -3.8672,  3.3077,  0.00,   8.4
2158, 96367.000,  22.301602988, 114.179494851,    3.3663,  5,  2, 17.1571, 25.1056, 29.5924,-20.1037, -8.9965,-11.0129,  0.00,   0.0
2158, 96368.000,  22.301578069, 114.179461989,    1.9984,  5, 18, 30.0000, 30.0000, 30.0000,  0.0000,  0.0000, -0.0000,  0.00,   0.0
2158, 96369.000,  22.301507862, 114.179391289,    7.3671,  2,  4,  6.2190, 18.0633, 23.1575,-10.5661,-20.4286, 11.9807,  0.00,   4.1
2158, 96370.000,  22.301467032, 114.179330167,    8.5782,  5,  2, 14.4152, 29.1543, 27.2486, 13.6414, -9.4218, 18.1714,  0.00,   0.0
2158, 96371.000,  22.301484484, 114.179376864,    4.1959,  5, 17, 30.0000, 30.0000, 30.0000, -0.0000,  0.0000,  0.0000,  0.00,   0.0
