% program   : RTKLIB ver.2.4.2
% inp file  : /root/GLIO_RT_ws/GLIO_ws/src/GLIO/GraphGNSSLibV1.1/global_fusion/dataset/RockRobotics/mobile_test2/rover.obs
% inp file  : /root/GLIO_RT_ws/GLIO_ws/src/GLIO/GraphGNSSLibV1.1/global_fusion/dataset/RockRobotics/mobile_test2/base.obs
% inp file  : /root/GLIO_RT_ws/GLIO_ws/src/GLIO/GraphGNSSLibV1.1/global_fusion/dataset/RockRobotics/mobile_test2/base.nav
% obs start : 2024/02/08 17:03:29.0 GPST (week2300 407009.0s)
% obs end   : 2024/02/08 17:22:14.4 GPST (week2300 408134.4s)
% pos mode  : kinematic
% freqs     : L1
% solution  : forward
% elev mask : 15.0 deg
% dynamics  : off
% tidecorr  : on
% ionos opt : broadcast
% tropo opt : saastamoinen
% ephemeris : broadcast
% navi sys  : gps glonass galileo qzss sbas
% amb res   : continuous
% amb glo   : on
% val thres : 3.0
% antenna1  :                       ( 0.0000  0.0000  0.0000)
% antenna2  :                       ( 0.0000  0.0000  0.0000)
% ref pos   : 39.793294107,-104.880291069, 1598.6232
%
% (lat/lon/height=WGS84/ellipsoidal,Q=1:fix,2:float,3:sbas,4:dgps,5:single,6:ppp,ns=# of satellites)
%  GPST        , latitude(deg),longitude(deg), height(m),  Q, ns,  sdn(m),  sde(m),  sdu(m), sdne(m), sdeu(m), sdun(m),age(s), ratio
2300,407009.000,  39.795514782,-104.870180467, 1589.9777,  1,  8,  0.0071,  0.0058,  0.0151,  0.0027,  0.0031,  0.0035,  0.00,   7.8
2300,407009.200,  39.795514805,-104.870180452, 1589.9737,  1,  8,  0.0071,  0.0058,  0.0151,  0.0027,  0.0032,  0.0034,  0.20,   9.0
2300,407009.400,  39.795514785,-104.870180456, 1589.9725,  1,  8,  0.0070,  0.0058,  0.0152,  0.0026,  0.0031,  0.0035,  0.40,   9.2
2300,407009.600,  39.795514810,-104.870180453, 1589.9779,  1,  8,  0.0071,  0.0059,  0.0152,  0.0028,  0.0030,  0.0034,  0.60,   7.6
2300,407009.800,  39.795514777,-104.870180464, 1589.9733,  1,  8,  0.0071,  0.0060,  0.0153,  0.0026,  0.0031,  0.0035,  0.80,   6.3
2300,407010.000,  39.795514824,-104.870180447, 1589.9778,  1,  8,  0.0070,  0.0058,  0.0151,  0.0028,  0.0031,  0.0034,  0.00,   6.6
2300,407010.200,  39.795514795,-104.870180441, 1589.9821,  1,  8,  0.0071,  0.0058,  0.0152,  0.0029,  0.0030,  0.0034,  0.20,   7.1
2300,407010.400,  39.795514830,-104.870180451, 1589.9787,  1,  8,  0.0071,  0.0059,  0.0152,  0.0028,  0.0031,  0.0034,  0.40,   7.1
2300,407010.600,  39.795514797,-104.870180458, 1589.9828,  1,  8,  0.0071,  0.0059,  0.0152,  0.0027,  0.0032,  0.0035,  0.60,   7.3
2300,407010.800,  39.795514782,-104.870180466, 1589.9812,  1,  8,  0.0071,  0.0058,  0.0153,  0.0027,  0.0030,  0.0035,  0.80,   7.2
2300,407011.000,  39.795514805,-104.870180450, 1589.9784,  1,  8,  0.0071,  0.0058,  0.0152,  0.0026,  0.0031,  0.0034,  0.00,   7.5
2300,407011.200,  39.795514806,-104.870180444, 1589.9785,  1,  8,  0.0070,  0.0058,  0.0152,  0.0028,  0.0030,  0.0035,  0.20,   8.0
2300,407011.400,  39.795514806,-104.870180448, 1589.9781,  1,  8,  0.0070,  0.0059,  0.0152,  0.0027,  0.0032,  0.0035,  0.40,   8.3
2300,407011.600,  39.795514815,-104.870180434, 1589.9787,  1,  8,  0.0071,  0.0058,  0.0152,  0.0028,  0.0031,  0.0034,  0.60,   8.5
2300,407011.800,  39.795514794,-104.870180426, 1589.9757,  1,  8,  0.0071,  0.0058,  0.0153,  0.0029,  0.0031,  0.0034,  0.80,   8.5
2300,407012.000,  39.795514792,-104.870180456, 1589.9789,  1,  8,  0.0071,  0.0057,  0.0152,  0.0027,  0.0031,  0.0034,  0.00,   8.4
2300,407012.200,  39.795514786,-104.870180448, 1589.9744,  1,  8,  0.0071,  0.0059,  0.0151,  0.0026,  0.0032,  0.0034,  0.20,   8.2
2300,407012.400,  39.795514805,-104.870180448, 1589.9799,  1,  8,  0.0072,  0.0059,  0.0152,  0.0027,  0.0030,  0.0033,  0.40,   8.3
2300,407012.600,  39.795514798,-104.870180430, 1589.9771,  1,  8,  0.0071,  0.0060,  0.0152,  0.0025,  0.0030,  0.0034,  0.60,   8.3
2300,407012.800,  39.795514797,-104.870180430, 1589.9790,  1,  8,  0.0072,  0.0058,  0.0153,  0.0029,  0.0032,  0.0034,  0.80,   8.4
2300,407013.000,  39.795514804,-104.870180447, 1589.9784,  1,  8,  0.0072,  0.0058,  0.0151,  0.0028,  0.0031,  0.0033,  0.00,   8.6
2300,407013.200,  39.795514792,-104.870180460, 1589.9788,  1,  8,  0.0071,  0.0057,  0.0152,  0.0027,  0.0031,  0.0034,  0.20,   8.5
2300,407013.400,  39.795514803,-104.870180455, 1589.9810,  1,  8,  0.0072,  0.0058,  0.0152,  0.0026,  0.0031,  0.0034,  0.40,   8.5
2300,407013.600,  39.795514784,-104.870180435, 1589.9814,  1,  8,  0.0071,  0.0058,  0.0152,  0.0026,  0.0030,  0.0035,  0.60,   8.4
2300,407013.800,  39.795514782,-104.870180426, 1589.9813,  1,  8,  0.0071,  0.0058,  0.0153,  0.0027,  0.0031,  0.0034,  0.80,   8.4
2300,407014.000,  39.795514808,-104.870180463, 1589.9854,  1,  8,  0.0071,  0.0059,  0.0152,  0.0026,  0.0032,  0.0035,  0.00,   8.4
2300,407014.200,  39.795514810,-104.870180463, 1589.9839,  1,  8,  0.0072,  0.0060,  0.0152,  0.0026,  0.0030,  0.0035,  0.20,   8.7
2300,407014.400,  39.795514804,-104.870180439, 1589.9791,  1,  8,  0.0071,  0.0058,  0.0152,  0.0027,  0.0032,  0.0034,  0.40,   8.8
2300,407014.600,  39.795514801,-104.870180449, 1589.9788,  1,  8,  0.0070,  0.0058,  0.0152,  0.0027,  0.0031,  0.0034,  0.60,   8.8
2300,407014.800,  39.795514799,-104.870180438, 1589.9824,  1,  8,  0.0071,  0.0058,  0.0153,  0.0027,  0.0030,  0.0035,  0.80,   8.9
2300,407015.000,  39.795514825,-104.870180474, 1589.9850,  1,  8,  0.0071,  0.0058,  0.0151,  0.0028,  0.0031,  0.0034,  0.00,   8.9
2300,407015.200,  39.795514814,-104.870180453, 1589.9814,  1,  8,  0.0070,  0.0056,  0.0152,  0.0027,  0.0029,  0.0034,  0.20,   8.8
2300,407015.400,  39.795514810,-104.870180461, 1589.9841,  1,  8,  0.0071,  0.0058,  0.0152,  0.0028,  0.0031,  0.0034,  0.40,   8.7
2300,407015.600,  39.795514815,-104.870180452, 1589.9836,  1,  8,  0.0071,  0.0059,  0.0152,  0.0028,  0.0031,  0.0035,  0.60,   8.6
2300,407015.800,  39.795514809,-104.870180448, 1589.9836,  1,  8,  0.0072,  0.0059,  0.0153,  0.0028,  0.0032,  0.0034,  0.80,   8.5
2300,407016.000,  39.795514803,-104.870180463, 1589.9814,  1,  8,  0.0071,  0.0058,  0.0151,  0.0026,  0.0032,  0.0034,  0.00,   8.5
2300,407016.200,  39.795514781,-104.870180458, 1589.9841,  1,  8,  0.0071,  0.0058,  0.0151,  0.0025,  0.0031,  0.0034,  0.20,   8.6
2300,407016.400,  39.795514798,-104.870180463, 1589.9825,  1,  8,  0.0072,  0.0059,  0.0151,  0.0026,  0.0032,  0.0034,  0.40,   8.5
2300,407016.600,  39.795514788,-104.870180447, 1589.9834,  1,  8,  0.0072,  0.0057,  0.0152,  0.0027,  0.0031,  0.0033,  0.60,   8.5
2300,407016.800,  39.795514810,-104.870180440, 1589.9858,  1,  8,  0.0071,  0.0059,  0.0153,  0.0027,  0.0032,  0.0035,  0.80,   8.5
2300,407017.000,  39.795514807,-104.870180461, 1589.9864,  1,  8,  0.0071,  0.0059,  0.0152,  0.0028,  0.0031,  0.0033,  0.00,   8.5
2300,407017.200,  39.795514799,-104.870180455, 1589.9838,  1,  8,  0.0071,  0.0058,  0.0151,  0.0027,  0.0031,  0.0035,  0.20,   8.4
2300,407017.400,  39.795514781,-104.870180463, 1589.9839,  1,  8,  0.0071,  0.0057,  0.0152,  0.0025,  0.0029,  0.0035,  0.40,   8.4
2300,407017.600,  39.795514789,-104.870180462, 1589.9836,  1,  8,  0.0072,  0.0059,  0.0152,  0.0028,  0.0030,  0.0033,  0.60,   8.4
2300,407017.800,  39.795514784,-104.870180442, 1589.9831,  1,  8,  0.0072,  0.0059,  0.0153,  0.0028,  0.0031,  0.0034,  0.80,   8.4
2300,407018.000,  39.795514774,-104.870180451, 1589.9813,  1,  8,  0.0071,  0.0057,  0.0151,  0.0026,  0.0031,  0.0034,  0.00,   8.4
2300,407018.200,  39.795514788,-104.870180463, 1589.9795,  1,  8,  0.0070,  0.0059,  0.0152,  0.0027,  0.0032,  0.0035,  0.20,   8.4
2300,407018.400,  39.795514800,-104.870180444, 1589.9821,  1,  8,  0.0071,  0.0058,  0.0152,  0.0024,  0.0032,  0.0035,  0.40,   8.4
2300,407018.600,  39.795514795,-104.870180439, 1589.9807,  1,  8,  0.0070,  0.0058,  0.0152,  0.0029,  0.0030,  0.0035,  0.60,   8.4
2300,407018.800,  39.795514782,-104.870180450, 1589.9825,  1,  8,  0.0071,  0.0059,  0.0153,  0.0027,  0.0029,  0.0035,  0.80,   8.4
2300,407019.000,  39.795514792,-104.870180447, 1589.9824,  1,  8,  0.0071,  0.0058,  0.0151,  0.0026,  0.0032,  0.0034,  0.00,   8.5
2300,407019.200,  39.795514796,-104.870180451, 1589.9813,  1,  8,  0.0071,  0.0059,  0.0152,  0.0027,  0.0030,  0.0034,  0.20,   8.6
2300,407019.400,  39.795514794,-104.870180435, 1589.9825,  1,  8,  0.0070,  0.0058,  0.0152,  0.0028,  0.0031,  0.0035,  0.40,   8.6
2300,407019.600,  39.795514783,-104.870180433, 1589.9809,  1,  8,  0.0071,  0.0060,  0.0152,  0.0028,  0.0033,  0.0035,  0.60,   8.6
2300,407019.800,  39.795514801,-104.870180418, 1589.9816,  1,  8,  0.0071,  0.0058,  0.0153,  0.0025,  0.0030,  0.0035,  0.80,   8.6
2300,407020.000,  39.795514798,-104.870180432, 1589.9836,  1,  8,  0.0071,  0.0057,  0.0151,  0.0026,  0.0031,  0.0034,  0.00,   8.6
2300,407020.200,  39.795514804,-104.870180445, 1589.9831,  1,  8,  0.0071,  0.0059,  0.0152,  0.0025,  0.0030,  0.0034,  0.20,   8.6
2300,407020.400,  39.795514803,-104.870180425, 1589.9807,  1,  8,  0.0072,  0.0057,  0.0152,  0.0027,  0.0030,  0.0033,  0.40,   8.6
2300,407020.600,  39.795514809,-104.870180429, 1589.9863,  1,  8,  0.0073,  0.0058,  0.0152,  0.0027,  0.0031,  0.0033,  0.60,   8.6
2300,407020.800,  39.795514799,-104.870180407, 1589.9845,  1,  8,  0.0072,  0.0059,  0.0153,  0.0027,  0.0031,  0.0034,  0.80,   8.6
2300,407021.000,  39.795514794,-104.870180434, 1589.9874,  1,  8,  0.0071,  0.0058,  0.0152,  0.0027,  0.0031,  0.0034,  0.00,   8.6
2300,407021.200,  39.795514828,-104.870180404, 1589.9825,  1,  8,  0.0072,  0.0057,  0.0151,  0.0028,  0.0031,  0.0033,  0.20,   8.5
2300,407021.400,  39.795514817,-104.870180410, 1589.9853,  1,  8,  0.0071,  0.0057,  0.0152,  0.0026,  0.0032,  0.0034,  0.40,   8.5
2300,407021.600,  39.795514816,-104.870180413, 1589.9853,  1,  8,  0.0071,  0.0057,  0.0152,  0.0027,  0.0031,  0.0035,  0.60,   8.5
2300,407021.800,  39.795514806,-104.870180406, 1589.9839,  1,  8,  0.0072,  0.0058,  0.0153,  0.0025,  0.0031,  0.0034,  0.80,   8.5
2300,407022.000,  39.795514801,-104.870180439, 1589.9872,  1,  8,  0.0071,  0.0058,  0.0151,  0.0025,  0.0032,  0.0033,  0.00,   8.4
2300,407022.200,  39.795514800,-104.870180411, 1589.9820,  1,  8,  0.0070,  0.0058,  0.0151,  0.0026,  0.0032,  0.0035,  0.20,   8.5
2300,407022.400,  39.795514784,-104.870180412, 1589.9850,  1,  8,  0.0071,  0.0057,  0.0152,  0.0027,  0.0031,  0.0033,  0.40,   8.5
2300,407022.600,  39.795514773,-104.870180431, 1589.9877,  1,  8,  0.0071,  0.0059,  0.0152,  0.0028,  0.0031,  0.0034,  0.60,   8.5
2300,407022.800,  39.795514790,-104.870180423, 1589.9849,  1,  8,  0.0072,  0.0060,  0.0153,  0.0028,  0.0032,  0.0034,  0.80,   8.4
2300,407023.000,  39.795514804,-104.870180445, 1589.9881,  1,  8,  0.0071,  0.0059,  0.0151,  0.0026,  0.0030,  0.0035,  0.00,   8.4
2300,407023.200,  39.795514799,-104.870180435, 1589.9855,  1,  8,  0.0070,  0.0058,  0.0152,  0.0027,  0.0030,  0.0034,  0.20,   8.4
2300,407023.400,  39.795514804,-104.870180443, 1589.9879,  1,  8,  0.0071,  0.0059,  0.0152,  0.0026,  0.0031,  0.0034,  0.40,   8.4
2300,407023.600,  39.795514812,-104.870180446, 1589.9904,  1,  8,  0.0071,  0.0059,  0.0152,  0.0025,  0.0031,  0.0033,  0.60,   8.5
2300,407023.800,  39.795514798,-104.870180458, 1589.9909,  1,  8,  0.0071,  0.0060,  0.0153,  0.0027,  0.0033,  0.0035,  0.80,   8.5
2300,407024.000,  39.795514780,-104.870180456, 1589.9838,  1,  8,  0.0071,  0.0058,  0.0151,  0.0025,  0.0030,  0.0034,  0.00,   8.6
2300,407024.200,  39.795514787,-104.870180445, 1589.9871,  1,  8,  0.0070,  0.0057,  0.0151,  0.0028,  0.0030,  0.0033,  0.20,   8.6
2300,407024.400,  39.795514785,-104.870180454, 1589.9831,  1,  8,  0.0070,  0.0058,  0.0152,  0.0028,  0.0032,  0.0034,  0.40,   8.7
2300,407024.600,  39.795514776,-104.870180462, 1589.9881,  1,  8,  0.0072,  0.0059,  0.0152,  0.0025,  0.0032,  0.0034,  0.60,   8.8
2300,407024.800,  39.795514780,-104.870180453, 1589.9843,  1,  8,  0.0071,  0.0058,  0.0153,  0.0027,  0.0030,  0.0034,  0.80,   8.8
2300,407025.000,  39.795514793,-104.870180455, 1589.9845,  1,  8,  0.0070,  0.0059,  0.0151,  0.0027,  0.0033,  0.0034,  0.00,   8.8
2300,407025.200,  39.795514793,-104.870180434, 1589.9841,  1,  8,  0.0071,  0.0057,  0.0151,  0.0026,  0.0032,  0.0034,  0.20,   8.8
2300,407025.400,  39.795514777,-104.870180454, 1589.9919,  1,  8,  0.0070,  0.0058,  0.0152,  0.0026,  0.0031,  0.0034,  0.40,   8.9
2300,407025.600,  39.795514767,-104.870180445, 1589.9914,  1,  8,  0.0070,  0.0059,  0.0152,  0.0027,  0.0032,  0.0034,  0.60,   9.0
2300,407025.800,  39.795514780,-104.870180447, 1589.9882,  1,  8,  0.0071,  0.0060,  0.0153,  0.0027,  0.0031,  0.0035,  0.80,   9.0
2300,407026.000,  39.795514799,-104.870180461, 1589.9871,  1,  8,  0.0072,  0.0058,  0.0151,  0.0024,  0.0033,  0.0033,  0.00,   9.1
2300,407026.200,  39.795514785,-104.870180462, 1589.9876,  1,  8,  0.0072,  0.0058,  0.0152,  0.0026,  0.0030,  0.0033,  0.20,   9.1
2300,407026.400,  39.795514798,-104.870180453, 1589.9899,  1,  8,  0.0071,  0.0058,  0.0152,  0.0026,  0.0030,  0.0033,  0.40,   9.1
2300,407026.600,  39.795514810,-104.870180450, 1589.9890,  1,  8,  0.0072,  0.0058,  0.0152,  0.0026,  0.0031,  0.0033,  0.60,   9.1
2300,407026.800,  39.795514794,-104.870180448, 1589.9880,  1,  8,  0.0072,  0.0060,  0.0153,  0.0027,  0.0029,  0.0034,  0.80,   9.2
2300,407027.000,  39.795514788,-104.870180464, 1589.9921,  1,  8,  0.0072,  0.0057,  0.0151,  0.0026,  0.0032,  0.0034,  0.00,   9.2
2300,407027.200,  39.795514799,-104.870180461, 1589.9897,  1,  8,  0.0071,  0.0057,  0.0151,  0.0028,  0.0031,  0.0034,  0.20,   9.2
2300,407027.400,  39.795514794,-104.870180462, 1589.9873,  1,  8,  0.0070,  0.0058,  0.0152,  0.0028,  0.0032,  0.0035,  0.40,   9.2
2300,407027.600,  39.795514779,-104.870180470, 1589.9920,  1,  8,  0.0071,  0.0059,  0.0152,  0.0026,  0.0032,  0.0035,  0.60,   9.2
2300,407027.800,  39.795514787,-104.870180457, 1589.9882,  1,  8,  0.0071,  0.0060,  0.0153,  0.0025,  0.0033,  0.0034,  0.80,   9.2
2300,407028.000,  39.795514778,-104.870180465, 1589.9844,  1,  8,  0.0070,  0.0058,  0.0151,  0.0025,  0.0031,  0.0036,  0.00,   9.2
2300,407028.200,  39.795514795,-104.870180464, 1589.9819,  1,  8,  0.0071,  0.0058,  0.0151,  0.0024,  0.0032,  0.0034,  0.20,   9.2
2300,407028.400,  39.795514799,-104.870180459, 1589.9877,  1,  8,  0.0071,  0.0058,  0.0152,  0.0030,  0.0031,  0.0034,  0.40,   9.1
2300,407028.600,  39.795514790,-104.870180446, 1589.9830,  1,  8,  0.0071,  0.0060,  0.0152,  0.0027,  0.0032,  0.0035,  0.60,   9.1
2300,407028.800,  39.795514790,-104.870180453, 1589.9877,  1,  8,  0.0071,  0.0059,  0.0153,  0.0026,  0.0030,  0.0033,  0.80,   9.1
2300,407029.000,  39.795514798,-104.870180464, 1589.9837,  1,  8,  0.0070,  0.0058,  0.0151,  0.0026,  0.0030,  0.0033,  0.00,   9.1
2300,407029.200,  39.795514785,-104.870180454, 1589.9817,  1,  8,  0.0070,  0.0058,  0.0151,  0.0027,  0.0032,  0.0035,  0.20,   9.1
2300,407029.400,  39.795514798,-104.870180445, 1589.9869,  1,  8,  0.0070,  0.0058,  0.0152,  0.0025,  0.0031,  0.0034,  0.40,   9.0
2300,407029.600,  39.795514773,-104.870180457, 1589.9881,  1,  8,  0.0072,  0.0059,  0.0152,  0.0024,  0.0031,  0.0034,  0.60,   9.0
2300,407029.800,  39.795514773,-104.870180444, 1589.9879,  1,  8,  0.0071,  0.0058,  0.0153,  0.0027,  0.0031,  0.0034,  0.80,   9.0
2300,407030.000,  39.795514794,-104.870180480, 1589.9815,  1,  8,  0.0072,  0.0057,  0.0151,  0.0024,  0.0032,  0.0034,  0.00,   9.0
2300,407030.200,  39.795514788,-104.870180468, 1589.9871,  1,  8,  0.0071,  0.0058,  0.0152,  0.0028,  0.0031,  0.0034,  0.20,   8.9
2300,407030.400,  39.795514806,-104.870180472, 1589.9851,  1,  8,  0.0070,  0.0058,  0.0152,  0.0025,  0.0033,  0.0034,  0.40,   8.9
2300,407030.600,  39.795514800,-104.870180462, 1589.9868,  1,  8,  0.0071,  0.0059,  0.0152,  0.0027,  0.0029,  0.0034,  0.60,   8.9
2300,407030.800,  39.795514768,-104.870180481, 1589.9871,  1,  8,  0.0072,  0.0060,  0.0153,  0.0028,  0.0032,  0.0034,  0.80,   8.8
2300,407031.000,  39.795514796,-104.870180493, 1589.9835,  1,  8,  0.0071,  0.0056,  0.0151,  0.0023,  0.0030,  0.0034,  0.00,   8.8
2300,407031.200,  39.795514799,-104.870180474, 1589.9852,  1,  8,  0.0070,  0.0058,  0.0151,  0.0028,  0.0032,  0.0034,  0.20,   8.8
2300,407031.400,  39.795514797,-104.870180469, 1589.9862,  1,  8,  0.0070,  0.0058,  0.0152,  0.0027,  0.0031,  0.0035,  0.40,   8.8
2300,407031.600,  39.795514789,-104.870180478, 1589.9883,  1,  8,  0.0071,  0.0057,  0.0152,  0.0028,  0.0031,  0.0034,  0.60,   8.7
2300,407031.800,  39.795514788,-104.870180471, 1589.9916,  1,  8,  0.0072,  0.0059,  0.0153,  0.0027,  0.0030,  0.0034,  0.80,   8.7
2300,407032.000,  39.795514786,-104.870180486, 1589.9815,  1,  8,  0.0071,  0.0058,  0.0151,  0.0026,  0.0031,  0.0034,  0.00,   8.7
2300,407032.200,  39.795514785,-104.870180489, 1589.9852,  1,  8,  0.0072,  0.0058,  0.0151,  0.0025,  0.0032,  0.0033,  0.20,   8.7
2300,407032.400,  39.795514785,-104.870180476, 1589.9850,  1,  8,  0.0071,  0.0058,  0.0152,  0.0029,  0.0031,  0.0035,  0.40,   8.7
2300,407032.600,  39.795514770,-104.870180476, 1589.9869,  1,  8,  0.0071,  0.0058,  0.0152,  0.0025,  0.0031,  0.0034,  0.60,   8.7
2300,407032.800,  39.795514762,-104.870180462, 1589.9851,  1,  8,  0.0071,  0.0058,  0.0153,  0.0025,  0.0028,  0.0034,  0.80,   8.7
2300,407033.000,  39.795514793,-104.870180486, 1589.9823,  1,  8,  0.0070,  0.0058,  0.0152,  0.0027,  0.0031,  0.0033,  0.00,   8.7
2300,407033.200,  39.795514801,-104.870180473, 1589.9841,  1,  8,  0.0069,  0.0058,  0.0152,  0.0028,  0.0030,  0.0035,  0.20,   8.6
2300,407033.400,  39.795514803,-104.870180467, 1589.9862,  1,  8,  0.0071,  0.0059,  0.0152,  0.0023,  0.0029,  0.0034,  0.40,   8.6
2300,407033.600,  39.795514800,-104.870180459, 1589.9836,  1,  8,  0.0071,  0.0057,  0.0152,  0.0025,  0.0031,  0.0033,  0.60,   8.5
2300,407033.800,  39.795514811,-104.870180445, 1589.9842,  1,  8,  0.0072,  0.0060,  0.0153,  0.0025,  0.0032,  0.0034,  0.80,   8.5
2300,407034.000,  39.795514792,-104.870180472, 1589.9855,  1,  8,  0.0070,  0.0058,  0.0151,  0.0027,  0.0032,  0.0035,  0.00,   8.4
2300,407034.200,  39.795514779,-104.870180474, 1589.9809,  1,  8,  0.0071,  0.0059,  0.0151,  0.0028,  0.0029,  0.0033,  0.20,   8.4
2300,407034.400,  39.795514790,-104.870180471, 1589.9826,  1,  8,  0.0070,  0.0059,  0.0152,  0.0029,  0.0030,  0.0036,  0.40,   8.4
2300,407034.600,  39.795514784,-104.870180453, 1589.9809,  1,  8,  0.0071,  0.0057,  0.0152,  0.0027,  0.0032,  0.0035,  0.60,   8.4
2300,407034.800,  39.795514790,-104.870180472, 1589.9842,  1,  8,  0.0072,  0.0058,  0.0153,  0.0026,  0.0031,  0.0033,  0.80,   8.4
2300,407035.000,  39.795514807,-104.870180484, 1589.9839,  1,  8,  0.0070,  0.0058,  0.0151,  0.0026,  0.0030,  0.0035,  0.00,   8.4
2300,407035.200,  39.795514817,-104.870180486, 1589.9829,  1,  8,  0.0071,  0.0057,  0.0151,  0.0024,  0.0031,  0.0033,  0.20,   8.3
2300,407035.400,  39.795514831,-104.870180450, 1589.9834,  1,  8,  0.0071,  0.0059,  0.0152,  0.0026,  0.0028,  0.0034,  0.40,   8.3
2300,407035.600,  39.795514802,-104.870180462, 1589.9873,  1,  8,  0.0070,  0.0058,  0.0152,  0.0026,  0.0031,  0.0035,  0.60,   8.3
2300,407035.800,  39.795514808,-104.870180453, 1589.9847,  1,  8,  0.0071,  0.0059,  0.0153,  0.0029,  0.0033,  0.0035,  0.80,   8.3
2300,407036.000,  39.795514799,-104.870180483, 1589.9826,  1,  8,  0.0070,  0.0058,  0.0151,  0.0027,  0.0030,  0.0034,  0.00,   8.3
2300,407036.200,  39.795514804,-104.870180480, 1589.9837,  1,  8,  0.0070,  0.0059,  0.0152,  0.0027,  0.0030,  0.0034,  0.20,   8.3
2300,407036.400,  39.795514792,-104.870180492, 1589.9836,  1,  8,  0.0071,  0.0060,  0.0152,  0.0027,  0.0031,  0.0033,  0.40,   8.3
2300,407036.600,  39.795514779,-104.870180488, 1589.9849,  1,  8,  0.0071,  0.0058,  0.0152,  0.0029,  0.0030,  0.0034,  0.60,   8.3
2300,407036.800,  39.795514797,-104.870180474, 1589.9818,  1,  8,  0.0071,  0.0059,  0.0153,  0.0028,  0.0032,  0.0034,  0.80,   8.3
2300,407037.000,  39.795514806,-104.870180484, 1589.9841,  1,  8,  0.0071,  0.0058,  0.0151,  0.0024,  0.0032,  0.0034,  0.00,   8.3
2300,407037.200,  39.795514797,-104.870180486, 1589.9821,  1,  8,  0.0071,  0.0058,  0.0152,  0.0025,  0.0030,  0.0033,  0.20,   8.3
2300,407037.400,  39.795514776,-104.870180497, 1589.9828,  1,  8,  0.0070,  0.0058,  0.0152,  0.0027,  0.0031,  0.0034,  0.40,   8.3
2300,407037.600,  39.795514799,-104.870180483, 1589.9807,  1,  8,  0.0072,  0.0059,  0.0152,  0.0029,  0.0030,  0.0033,  0.60,   8.3
2300,407037.800,  39.795514792,-104.870180497, 1589.9822,  1,  8,  0.0071,  0.0059,  0.0153,  0.0025,  0.0032,  0.0034,  0.80,   8.3
2300,407038.000,  39.795514801,-104.870180495, 1589.9813,  1,  8,  0.0071,  0.0059,  0.0151,  0.0028,  0.0031,  0.0034,  0.00,   8.3
2300,407038.200,  39.795514814,-104.870180483, 1589.9793,  1,  8,  0.0071,  0.0058,  0.0151,  0.0026,  0.0031,  0.0033,  0.20,   8.3
2300,407038.400,  39.795514797,-104.870180482, 1589.9765,  1,  8,  0.0072,  0.0059,  0.0152,  0.0027,  0.0032,  0.0032,  0.40,   8.3
2300,407038.600,  39.795514792,-104.870180498, 1589.9798,  1,  8,  0.0071,  0.0059,  0.0152,  0.0027,  0.0031,  0.0034,  0.60,   8.3
2300,407038.800,  39.795514804,-104.870180485, 1589.9807,  1,  8,  0.0071,  0.0059,  0.0153,  0.0027,  0.0031,  0.0035,  0.80,   8.3
2300,407039.000,  39.795514799,-104.870180483, 1589.9830,  1,  8,  0.0071,  0.0058,  0.0151,  0.0028,  0.0032,  0.0034,  0.00,   8.3
2300,407039.200,  39.795514814,-104.870180485, 1589.9820,  1,  8,  0.0071,  0.0058,  0.0151,  0.0026,  0.0032,  0.0033,  0.20,   8.3
2300,407039.400,  39.795514778,-104.870180494, 1589.9822,  1,  8,  0.0071,  0.0058,  0.0152,  0.0027,  0.0030,  0.0034,  0.40,   8.3
2300,407039.600,  39.795514791,-104.870180487, 1589.9855,  1,  8,  0.0071,  0.0058,  0.0152,  0.0026,  0.0031,  0.0034,  0.60,   8.3
2300,407039.800,  39.795514787,-104.870180486, 1589.9811,  1,  8,  0.0072,  0.0059,  0.0153,  0.0026,  0.0031,  0.0034,  0.80,   8.3
2300,407040.000,  39.795514816,-104.870180488, 1589.9831,  1,  8,  0.0070,  0.0058,  0.0151,  0.0027,  0.0031,  0.0034,  0.00,   8.3
2300,407040.200,  39.795514812,-104.870180487, 1589.9798,  1,  8,  0.0071,  0.0059,  0.0151,  0.0025,  0.0032,  0.0034,  0.20,   8.3
2300,407040.400,  39.795514799,-104.870180502, 1589.9820,  1,  8,  0.0071,  0.0058,  0.0151,  0.0026,  0.0030,  0.0032,  0.40,   8.3
2300,407040.600,  39.795514797,-104.870180477, 1589.9766,  1,  8,  0.0071,  0.0057,  0.0152,  0.0029,  0.0031,  0.0033,  0.60,   8.3
2300,407040.800,  39.795514796,-104.870180479, 1589.9816,  1,  8,  0.0071,  0.0058,  0.0153,  0.0023,  0.0030,  0.0034,  0.80,   8.4
2300,407041.000,  39.795514791,-104.870180496, 1589.9807,  1,  8,  0.0071,  0.0058,  0.0152,  0.0029,  0.0031,  0.0034,  0.00,   8.3
2300,407041.200,  39.795514798,-104.870180482, 1589.9825,  1,  8,  0.0070,  0.0060,  0.0151,  0.0027,  0.0032,  0.0034,  0.20,   8.3
2300,407041.400,  39.795514789,-104.870180488, 1589.9801,  1,  8,  0.0070,  0.0059,  0.0152,  0.0028,  0.0030,  0.0034,  0.40,   8.3
2300,407041.600,  39.795514800,-104.870180465, 1589.9826,  1,  8,  0.0071,  0.0060,  0.0152,  0.0025,  0.0031,  0.0033,  0.60,   8.3
2300,407041.800,  39.795514782,-104.870180484, 1589.9848,  1,  8,  0.0071,  0.0057,  0.0153,  0.0028,  0.0030,  0.0034,  0.80,   8.3
2300,407042.000,  39.795514787,-104.870180478, 1589.9806,  1,  8,  0.0069,  0.0059,  0.0151,  0.0028,  0.0031,  0.0035,  0.00,   8.3
2300,407042.200,  39.795514806,-104.870180478, 1589.9786,  1,  8,  0.0070,  0.0058,  0.0151,  0.0028,  0.0030,  0.0035,  0.20,   8.3
2300,407042.400,  39.795514786,-104.870180496, 1589.9798,  1,  8,  0.0071,  0.0058,  0.0152,  0.0027,  0.0031,  0.0035,  0.40,   8.3
2300,407042.600,  39.795514786,-104.870180477, 1589.9807,  1,  8,  0.0071,  0.0059,  0.0152,  0.0028,  0.0032,  0.0034,  0.60,   8.3
2300,407042.800,  39.795514781,-104.870180480, 1589.9807,  1,  8,  0.0070,  0.0059,  0.0153,  0.0026,  0.0031,  0.0034,  0.80,   8.3
2300,407043.000,  39.795514814,-104.870180495, 1589.9828,  1,  8,  0.0070,  0.0059,  0.0151,  0.0026,  0.0032,  0.0034,  0.00,   8.3
2300,407043.200,  39.795514814,-104.870180482, 1589.9802,  1,  8,  0.0072,  0.0058,  0.0152,  0.0026,  0.0029,  0.0032,  0.20,   8.3
2300,407043.400,  39.795514792,-104.870180490, 1589.9844,  1,  8,  0.0071,  0.0058,  0.0152,  0.0029,  0.0029,  0.0032,  0.40,   8.3
2300,407043.600,  39.795514787,-104.870180476, 1589.9847,  1,  8,  0.0071,  0.0058,  0.0152,  0.0024,  0.0031,  0.0034,  0.60,   8.3
2300,407043.800,  39.795514798,-104.870180467, 1589.9853,  1,  8,  0.0072,  0.0057,  0.0153,  0.0026,  0.0032,  0.0034,  0.80,   8.3
2300,407044.000,  39.795514799,-104.870180479, 1589.9858,  1,  8,  0.0070,  0.0058,  0.0152,  0.0027,  0.0031,  0.0034,  0.00,   8.3
2300,407044.200,  39.795514787,-104.870180477, 1589.9835,  1,  8,  0.0071,  0.0059,  0.0151,  0.0028,  0.0032,  0.0032,  0.20,   8.3
2300,407044.400,  39.795514800,-104.870180489, 1589.9843,  1,  8,  0.0070,  0.0059,  0.0152,  0.0027,  0.0031,  0.0034,  0.40,   8.3
2300,407044.600,  39.795514784,-104.870180468, 1589.9859,  1,  8,  0.0070,  0.0057,  0.0152,  0.0028,  0.0029,  0.0035,  0.60,   8.3
2300,407044.800,  39.795514782,-104.870180470, 1589.9846,  1,  8,  0.0072,  0.0057,  0.0153,  0.0025,  0.0030,  0.0033,  0.80,   8.4
2300,407045.000,  39.795514795,-104.870180475, 1589.9813,  1,  8,  0.0071,  0.0057,  0.0151,  0.0026,  0.0030,  0.0033,  0.00,   8.4
2300,407045.200,  39.795514796,-104.870180482, 1589.9841,  1,  8,  0.0070,  0.0058,  0.0152,  0.0028,  0.0030,  0.0032,  0.20,   8.4
2300,407045.400,  39.795514812,-104.870180463, 1589.9813,  1,  8,  0.0070,  0.0059,  0.0152,  0.0027,  0.0029,  0.0033,  0.40,   8.4
2300,407045.600,  39.795514792,-104.870180469, 1589.9858,  1,  8,  0.0071,  0.0059,  0.0152,  0.0024,  0.0029,  0.0033,  0.60,   8.4
2300,407045.800,  39.795514801,-104.870180472, 1589.9830,  1,  8,  0.0070,  0.0058,  0.0153,  0.0029,  0.0029,  0.0034,  0.80,   8.4
2300,407046.000,  39.795514792,-104.870180482, 1589.9859,  1,  8,  0.0071,  0.0058,  0.0151,  0.0028,  0.0031,  0.0033,  0.00,   8.4
2300,407046.200,  39.795514784,-104.870180471, 1589.9869,  1,  8,  0.0070,  0.0059,  0.0151,  0.0028,  0.0032,  0.0033,  0.20,   8.4
2300,407046.400,  39.795514776,-104.870180473, 1589.9917,  1,  8,  0.0071,  0.0059,  0.0152,  0.0027,  0.0030,  0.0033,  0.40,   8.4
2300,407046.600,  39.795514782,-104.870180471, 1589.9897,  1,  8,  0.0071,  0.0060,  0.0152,  0.0026,  0.0030,  0.0034,  0.60,   8.5
2300,407046.800,  39.795514807,-104.870180449, 1589.9880,  1,  8,  0.0071,  0.0058,  0.0153,  0.0024,  0.0029,  0.0034,  0.80,   8.5
2300,407047.000,  39.795514793,-104.870180468, 1589.9870,  1,  8,  0.0070,  0.0059,  0.0151,  0.0027,  0.0029,  0.0033,  0.00,   8.5
2300,407047.200,  39.795514796,-104.870180467, 1589.9847,  1,  8,  0.0068,  0.0057,  0.0152,  0.0029,  0.0030,  0.0035,  0.20,   8.5
2300,407047.400,  39.795514778,-104.870180472, 1589.9841,  1,  8,  0.0070,  0.0057,  0.0152,  0.0029,  0.0032,  0.0035,  0.40,   8.5
2300,407047.600,  39.795514808,-104.870180452, 1589.9841,  1,  8,  0.0071,  0.0058,  0.0152,  0.0024,  0.0030,  0.0033,  0.60,   8.5
2300,407047.800,  39.795514803,-104.870180455, 1589.9827,  1,  8,  0.0071,  0.0059,  0.0153,  0.0026,  0.0030,  0.0034,  0.80,   8.5
2300,407048.000,  39.795514769,-104.870180479, 1589.9857,  1,  8,  0.0070,  0.0058,  0.0151,  0.0027,  0.0031,  0.0034,  0.00,   8.5
2300,407048.200,  39.795514779,-104.870180467, 1589.9827,  1,  8,  0.0070,  0.0057,  0.0151,  0.0027,  0.0031,  0.0033,  0.20,   8.5
2300,407048.400,  39.795514793,-104.870180462, 1589.9818,  1,  8,  0.0070,  0.0057,  0.0152,  0.0026,  0.0031,  0.0035,  0.40,   8.6
2300,407048.600,  39.795514772,-104.870180459, 1589.9834,  1,  8,  0.0071,  0.0058,  0.0152,  0.0024,  0.0031,  0.0033,  0.60,   8.6
2300,407048.800,  39.795514767,-104.870180469, 1589.9846,  1,  8,  0.0072,  0.0060,  0.0153,  0.0027,  0.0032,  0.0033,  0.80,   8.6
2300,407049.000,  39.795514789,-104.870180474, 1589.9839,  1,  8,  0.0070,  0.0057,  0.0151,  0.0027,  0.0030,  0.0034,  0.00,   8.6
2300,407049.200,  39.795514796,-104.870180478, 1589.9801,  1,  8,  0.0071,  0.0058,  0.0151,  0.0028,  0.0028,  0.0033,  0.20,   8.6
2300,407049.400,  39.795514777,-104.870180473, 1589.9854,  1,  8,  0.0071,  0.0060,  0.0152,  0.0025,  0.0030,  0.0033,  0.40,   8.6
2300,407049.600,  39.795514788,-104.870180464, 1589.9823,  1,  8,  0.0071,  0.0058,  0.0152,  0.0026,  0.0030,  0.0033,  0.60,   8.6
2300,407049.800,  39.795514768,-104.870180450, 1589.9821,  1,  8,  0.0071,  0.0059,  0.0153,  0.0027,  0.0031,  0.0033,  0.80,   8.6
2300,407050.000,  39.795514782,-104.870180481, 1589.9852,  1,  8,  0.0070,  0.0058,  0.0151,  0.0028,  0.0031,  0.0034,  0.00,   8.7
2300,407050.200,  39.795514775,-104.870180485, 1589.9834,  1,  8,  0.0070,  0.0057,  0.0151,  0.0026,  0.0028,  0.0034,  0.20,   8.7
2300,407050.400,  39.795514765,-104.870180475, 1589.9825,  1,  8,  0.0071,  0.0060,  0.0152,  0.0026,  0.0028,  0.0034,  0.40,   8.7
2300,407050.600,  39.795514780,-104.870180469, 1589.9850,  1,  8,  0.0070,  0.0058,  0.0152,  0.0028,  0.0032,  0.0034,  0.60,   8.7
2300,407050.800,  39.795514770,-104.870180453, 1589.9874,  1,  8,  0.0071,  0.0061,  0.0153,  0.0025,  0.0031,  0.0034,  0.80,   8.7
2300,407051.000,  39.795514775,-104.870180474, 1589.9802,  1,  8,  0.0071,  0.0057,  0.0152,  0.0026,  0.0031,  0.0033,  0.00,   8.7
2300,407051.200,  39.795514780,-104.870180460, 1589.9813,  1,  8,  0.0071,  0.0058,  0.0152,  0.0025,  0.0031,  0.0034,  0.20,   8.7
2300,407051.400,  39.795514777,-104.870180476, 1589.9824,  1,  8,  0.0069,  0.0059,  0.0152,  0.0026,  0.0029,  0.0035,  0.40,   8.8
2300,407051.600,  39.795514788,-104.870180458, 1589.9780,  1,  8,  0.0071,  0.0060,  0.0152,  0.0029,  0.0030,  0.0035,  0.60,   8.8
2300,407051.800,  39.795514786,-104.870180461, 1589.9798,  1,  8,  0.0071,  0.0058,  0.0153,  0.0026,  0.0030,  0.0034,  0.80,   8.8
2300,407052.000,  39.795514771,-104.870180466, 1589.9811,  1,  8,  0.0071,  0.0058,  0.0151,  0.0027,  0.0031,  0.0033,  0.00,   8.8
2300,407052.200,  39.795514768,-104.870180476, 1589.9839,  1,  8,  0.0071,  0.0058,  0.0151,  0.0028,  0.0033,  0.0032,  0.20,   8.8
2300,407052.400,  39.795514785,-104.870180466, 1589.9809,  1,  8,  0.0071,  0.0059,  0.0152,  0.0027,  0.0029,  0.0034,  0.40,   8.8
2300,407052.600,  39.795514775,-104.870180458, 1589.9788,  1,  8,  0.0071,  0.0058,  0.0152,  0.0028,  0.0030,  0.0034,  0.60,   8.8
2300,407052.800,  39.795514781,-104.870180449, 1589.9841,  1,  8,  0.0071,  0.0058,  0.0153,  0.0028,  0.0029,  0.0034,  0.80,   8.8
2300,407053.000,  39.795514783,-104.870180474, 1589.9833,  1,  8,  0.0071,  0.0058,  0.0151,  0.0026,  0.0030,  0.0034,  0.00,   8.8
2300,407053.200,  39.795514791,-104.870180465, 1589.9823,  1,  8,  0.0071,  0.0057,  0.0151,  0.0026,  0.0032,  0.0032,  0.20,   8.8
2300,407053.400,  39.795514790,-104.870180479, 1589.9833,  1,  8,  0.0070,  0.0057,  0.0152,  0.0026,  0.0032,  0.0033,  0.40,   8.8
2300,407053.600,  39.795514779,-104.870180472, 1589.9836,  1,  8,  0.0071,  0.0059,  0.0152,  0.0026,  0.0030,  0.0033,  0.60,   8.8
2300,407053.800,  39.795514789,-104.870180472, 1589.9832,  1,  8,  0.0071,  0.0058,  0.0153,  0.0027,  0.0030,  0.0034,  0.80,   8.8
2300,407054.000,  39.795514783,-104.870180465, 1589.9812,  1,  8,  0.0069,  0.0059,  0.0151,  0.0027,  0.0031,  0.0035,  0.00,   8.8
2300,407054.200,  39.795514771,-104.870180470, 1589.9802,  1,  8,  0.0070,  0.0058,  0.0151,  0.0028,  0.0032,  0.0034,  0.20,   8.8
2300,407054.400,  39.795514777,-104.870180469, 1589.9837,  1,  8,  0.0071,  0.0059,  0.0151,  0.0026,  0.0030,  0.0033,  0.40,   8.8
2300,407054.600,  39.795514781,-104.870180447, 1589.9828,  1,  8,  0.0071,  0.0058,  0.0152,  0.0028,  0.0031,  0.0033,  0.60,   8.9
2300,407054.800,  39.795514790,-104.870180457, 1589.9792,  1,  8,  0.0072,  0.0059,  0.0153,  0.0028,  0.0031,  0.0034,  0.80,   8.9
2300,407055.000,  39.795514785,-104.870180463, 1589.9827,  1,  8,  0.0070,  0.0059,  0.0151,  0.0029,  0.0032,  0.0034,  0.00,   8.9
2300,407055.200,  39.795514797,-104.870180449, 1589.9812,  1,  8,  0.0071,  0.0058,  0.0152,  0.0027,  0.0030,  0.0033,  0.20,   8.9
2300,407055.400,  39.795514776,-104.870180467, 1589.9815,  1,  8,  0.0070,  0.0058,  0.0151,  0.0025,  0.0030,  0.0033,  0.40,   8.9
2300,407055.600,  39.795514761,-104.870180467, 1589.9815,  1,  8,  0.0072,  0.0058,  0.0152,  0.0025,  0.0030,  0.0032,  0.60,   8.9
2300,407055.800,  39.795514787,-104.870180460, 1589.9851,  1,  8,  0.0071,  0.0058,  0.0153,  0.0028,  0.0030,  0.0034,  0.80,   8.9
2300,407056.000,  39.795514783,-104.870180484, 1589.9819,  1,  8,  0.0070,  0.0057,  0.0151,  0.0029,  0.0032,  0.0033,  0.00,   8.9
2300,407056.200,  39.795514772,-104.870180488, 1589.9797,  1,  8,  0.0071,  0.0058,  0.0152,  0.0026,  0.0030,  0.0035,  0.20,   9.0
2300,407056.400,  39.795514770,-104.870180505, 1589.9787,  1,  8,  0.0071,  0.0058,  0.0152,  0.0026,  0.0030,  0.0034,  0.40,   9.0
2300,407056.600,  39.795514784,-104.870180471, 1589.9810,  1,  8,  0.0071,  0.0060,  0.0152,  0.0027,  0.0029,  0.0034,  0.60,   9.0
2300,407056.800,  39.795514773,-104.870180482, 1589.9816,  1,  8,  0.0071,  0.0060,  0.0153,  0.0027,  0.0030,  0.0034,  0.80,   9.0
2300,407057.000,  39.795514774,-104.870180491, 1589.9861,  1,  8,  0.0070,  0.0058,  0.0151,  0.0026,  0.0030,  0.0034,  0.00,   9.0
2300,407057.200,  39.795514769,-104.870180487, 1589.9836,  1,  8,  0.0070,  0.0058,  0.0151,  0.0027,  0.0031,  0.0034,  0.20,   9.0
2300,407057.400,  39.795514772,-104.870180487, 1589.9832,  1,  8,  0.0070,  0.0058,  0.0152,  0.0027,  0.0030,  0.0033,  0.40,   9.1
2300,407057.600,  39.795514773,-104.870180478, 1589.9834,  1,  8,  0.0071,  0.0060,  0.0152,  0.0026,  0.0031,  0.0033,  0.60,   9.1
2300,407057.800,  39.795514780,-104.870180454, 1589.9802,  1,  8,  0.0072,  0.0059,  0.0153,  0.0027,  0.0031,  0.0034,  0.80,   9.1
2300,407058.000,  39.795514782,-104.870180476, 1589.9813,  1,  8,  0.0070,  0.0058,  0.0151,  0.0027,  0.0031,  0.0033,  0.00,   9.2
2300,407058.200,  39.795514766,-104.870180479, 1589.9806,  1,  8,  0.0070,  0.0059,  0.0151,  0.0026,  0.0031,  0.0034,  0.20,   9.2
2300,407058.400,  39.795514774,-104.870180474, 1589.9783,  1,  8,  0.0070,  0.0058,  0.0152,  0.0026,  0.0031,  0.0034,  0.40,   9.2
2300,407058.600,  39.795514780,-104.870180468, 1589.9785,  1,  8,  0.0070,  0.0058,  0.0152,  0.0027,  0.0029,  0.0034,  0.60,   9.2
2300,407058.800,  39.795514783,-104.870180460, 1589.9777,  1,  8,  0.0071,  0.0059,  0.0153,  0.0028,  0.0030,  0.0033,  0.80,   9.2
2300,407059.000,  39.795514786,-104.870180486, 1589.9816,  1,  8,  0.0071,  0.0059,  0.0151,  0.0027,  0.0031,  0.0033,  0.00,   9.3
2300,407059.200,  39.795514775,-104.870180494, 1589.9844,  1,  8,  0.0071,  0.0058,  0.0151,  0.0027,  0.0030,  0.0032,  0.20,   9.3
2300,407059.400,  39.795514781,-104.870180479, 1589.9793,  1,  8,  0.0071,  0.0058,  0.0152,  0.0025,  0.0030,  0.0033,  0.40,   9.3
2300,407059.600,  39.795514782,-104.870180474, 1589.9825,  1,  8,  0.0071,  0.0059,  0.0152,  0.0028,  0.0031,  0.0033,  0.60,   9.3
2300,407059.800,  39.795514781,-104.870180470, 1589.9806,  1,  8,  0.0071,  0.0058,  0.0153,  0.0027,  0.0029,  0.0033,  0.80,   9.4
2300,407060.000,  39.795514765,-104.870180489, 1589.9801,  1,  8,  0.0070,  0.0058,  0.0151,  0.0026,  0.0029,  0.0033,  0.00,   9.4
2300,407060.200,  39.795514779,-104.870180471, 1589.9765,  1,  8,  0.0071,  0.0057,  0.0151,  0.0027,  0.0031,  0.0033,  0.20,   9.4
2300,407060.400,  39.795514785,-104.870180477, 1589.9793,  1,  8,  0.0071,  0.0059,  0.0152,  0.0027,  0.0030,  0.0033,  0.40,   9.4
2300,407060.600,  39.795514761,-104.870180469, 1589.9790,  1,  8,  0.0071,  0.0057,  0.0152,  0.0026,  0.0030,  0.0033,  0.60,   9.5
2300,407060.800,  39.795514786,-104.870180442, 1589.9764,  1,  8,  0.0071,  0.0059,  0.0153,  0.0029,  0.0031,  0.0032,  0.80,   9.5
2300,407061.000,  39.795514787,-104.870180472, 1589.9783,  1,  8,  0.0069,  0.0059,  0.0151,  0.0028,  0.0031,  0.0034,  0.00,   9.5
2300,407061.200,  39.795514789,-104.870180455, 1589.9781,  1,  8,  0.0069,  0.0057,  0.0151,  0.0028,  0.0031,  0.0034,  0.20,   9.5
2300,407061.400,  39.795514795,-104.870180454, 1589.9788,  1,  8,  0.0070,  0.0059,  0.0152,  0.0026,  0.0031,  0.0033,  0.40,   9.5
2300,407061.600,  39.795514799,-104.870180443, 1589.9791,  1,  8,  0.0071,  0.0059,  0.0152,  0.0025,  0.0030,  0.0034,  0.60,   9.5
2300,407061.800,  39.795514783,-104.870180442, 1589.9818,  1,  8,  0.0072,  0.0059,  0.0153,  0.0027,  0.0030,  0.0033,  0.80,   9.6
2300,407062.000,  39.795514771,-104.870180481, 1589.9798,  1,  8,  0.0071,  0.0059,  0.0151,  0.0026,  0.0032,  0.0033,  0.00,   9.6
2300,407062.200,  39.795514757,-104.870180488, 1589.9854,  1,  8,  0.0070,  0.0058,  0.0151,  0.0027,  0.0030,  0.0033,  0.20,   9.6
2300,407062.400,  39.795514778,-104.870180469, 1589.9796,  1,  8,  0.0069,  0.0058,  0.0151,  0.0026,  0.0030,  0.0034,  0.40,   9.6
2300,407062.600,  39.795514758,-104.870180476, 1589.9815,  1,  8,  0.0071,  0.0057,  0.0152,  0.0026,  0.0031,  0.0033,  0.60,   9.7
2300,407062.800,  39.795514778,-104.870180460, 1589.9811,  1,  8,  0.0073,  0.0059,  0.0153,  0.0028,  0.0030,  0.0032,  0.80,   9.7
2300,407063.000,  39.795514768,-104.870180459, 1589.9792,  1,  8,  0.0070,  0.0058,  0.0151,  0.0028,  0.0030,  0.0033,  0.00,   9.7
2300,407063.200,  39.795514779,-104.870180455, 1589.9776,  1,  8,  0.0070,  0.0058,  0.0151,  0.0024,  0.0030,  0.0034,  0.20,   9.7
2300,407063.400,  39.795514759,-104.870180436, 1589.9777,  1,  8,  0.0071,  0.0058,  0.0152,  0.0026,  0.0030,  0.0033,  0.40,   9.7
2300,407063.600,  39.795514773,-104.870180434, 1589.9807,  1,  8,  0.0070,  0.0058,  0.0152,  0.0026,  0.0032,  0.0033,  0.60,   9.7
2300,407063.800,  39.795514771,-104.870180429, 1589.9771,  1,  8,  0.0072,  0.0058,  0.0153,  0.0027,  0.0027,  0.0033,  0.80,   9.7
2300,407064.000,  39.795514776,-104.870180477, 1589.9807,  1,  8,  0.0070,  0.0059,  0.0151,  0.0028,  0.0031,  0.0033,  0.00,   9.8
2300,407064.200,  39.795514785,-104.870180449, 1589.9774,  1,  8,  0.0071,  0.0059,  0.0152,  0.0027,  0.0030,  0.0034,  0.20,   9.8
2300,407064.400,  39.795514780,-104.870180460, 1589.9805,  1,  8,  0.0071,  0.0058,  0.0152,  0.0026,  0.0031,  0.0033,  0.40,   9.8
2300,407064.600,  39.795514798,-104.870180449, 1589.9810,  1,  8,  0.0071,  0.0059,  0.0152,  0.0026,  0.0031,  0.0033,  0.60,   9.8
2300,407064.800,  39.795514781,-104.870180446, 1589.9812,  1,  8,  0.0071,  0.0059,  0.0153,  0.0026,  0.0029,  0.0033,  0.80,   9.9
2300,407065.000,  39.795514761,-104.870180477, 1589.9787,  1,  8,  0.0070,  0.0059,  0.0151,  0.0027,  0.0030,  0.0034,  0.00,   9.9
2300,407065.200,  39.795514787,-104.870180457, 1589.9778,  1,  8,  0.0070,  0.0059,  0.0151,  0.0028,  0.0030,  0.0033,  0.20,   9.9
2300,407065.400,  39.795514778,-104.870180451, 1589.9805,  1,  8,  0.0071,  0.0060,  0.0152,  0.0026,  0.0030,  0.0033,  0.40,   9.9
2300,407065.600,  39.795514776,-104.870180437, 1589.9788,  1,  8,  0.0070,  0.0058,  0.0152,  0.0028,  0.0029,  0.0034,  0.60,   9.9
2300,407065.800,  39.795514779,-104.870180437, 1589.9781,  1,  8,  0.0070,  0.0058,  0.0153,  0.0025,  0.0031,  0.0033,  0.80,   9.9
2300,407066.000,  39.795514787,-104.870180465, 1589.9787,  1,  8,  0.0069,  0.0059,  0.0151,  0.0027,  0.0031,  0.0033,  0.00,  10.0
2300,407066.200,  39.795514800,-104.870180462, 1589.9769,  1,  8,  0.0071,  0.0057,  0.0151,  0.0027,  0.0030,  0.0034,  0.20,  10.0
2300,407066.400,  39.795514783,-104.870180467, 1589.9785,  1,  8,  0.0070,  0.0059,  0.0152,  0.0029,  0.0031,  0.0034,  0.40,  10.0
2300,407066.600,  39.795514791,-104.870180456, 1589.9803,  1,  8,  0.0070,  0.0059,  0.0152,  0.0026,  0.0030,  0.0033,  0.60,  10.0
2300,407066.800,  39.795514794,-104.870180451, 1589.9801,  1,  8,  0.0070,  0.0059,  0.0153,  0.0027,  0.0032,  0.0033,  0.80,  10.0
2300,407067.000,  39.795514793,-104.870180447, 1589.9818,  1,  8,  0.0070,  0.0057,  0.0151,  0.0027,  0.0030,  0.0032,  0.00,  10.0
2300,407067.200,  39.795514802,-104.870180446, 1589.9767,  1,  8,  0.0070,  0.0058,  0.0152,  0.0028,  0.0030,  0.0033,  0.20,  10.1
2300,407067.400,  39.795514793,-104.870180448, 1589.9761,  1,  8,  0.0070,  0.0058,  0.0152,  0.0027,  0.0030,  0.0034,  0.40,  10.1
2300,407067.600,  39.795514791,-104.870180428, 1589.9803,  1,  8,  0.0071,  0.0059,  0.0152,  0.0025,  0.0031,  0.0033,  0.60,  10.1
2300,407067.800,  39.795514786,-104.870180430, 1589.9779,  1,  8,  0.0071,  0.0059,  0.0153,  0.0026,  0.0029,  0.0033,  0.80,  10.1
2300,407068.000,  39.795514784,-104.870180442, 1589.9825,  1,  8,  0.0070,  0.0058,  0.0151,  0.0027,  0.0029,  0.0034,  0.00,  10.1
2300,407068.200,  39.795514791,-104.870180446, 1589.9822,  1,  8,  0.0070,  0.0059,  0.0151,  0.0026,  0.0032,  0.0033,  0.20,  10.1
2300,407068.400,  39.795514792,-104.870180437, 1589.9842,  1,  8,  0.0071,  0.0059,  0.0151,  0.0026,  0.0030,  0.0033,  0.40,  10.1
2300,407068.600,  39.795514791,-104.870180433, 1589.9847,  1,  8,  0.0071,  0.0058,  0.0152,  0.0023,  0.0031,  0.0033,  0.60,  10.1
2300,407068.800,  39.795514792,-104.870180415, 1589.9824,  1,  8,  0.0071,  0.0060,  0.0153,  0.0026,  0.0028,  0.0033,  0.80,  10.1
2300,407069.000,  39.795514787,-104.870180440, 1589.9815,  1,  8,  0.0069,  0.0058,  0.0151,  0.0029,  0.0029,  0.0033,  0.00,  10.2
2300,407069.200,  39.795514796,-104.870180416, 1589.9818,  1,  8,  0.0070,  0.0058,  0.0151,  0.0029,  0.0030,  0.0034,  0.20,  10.2
2300,407069.400,  39.795514788,-104.870180410, 1589.9806,  1,  8,  0.0070,  0.0058,  0.0152,  0.0025,  0.0031,  0.0033,  0.40,  10.2
2300,407069.600,  39.795514797,-104.870180436, 1589.9806,  1,  8,  0.0071,  0.0058,  0.0152,  0.0026,  0.0030,  0.0033,  0.60,  10.2
2300,407069.800,  39.795514783,-104.870180427, 1589.9871,  1,  8,  0.0071,  0.0059,  0.0153,  0.0027,  0.0030,  0.0034,  0.80,  10.2
2300,407070.000,  39.795514815,-104.870180433, 1589.9845,  1,  8,  0.0070,  0.0058,  0.0151,  0.0026,  0.0031,  0.0033,  0.00,  10.2
2300,407070.200,  39.795514801,-104.870180437, 1589.9840,  1,  8,  0.0071,  0.0059,  0.0151,  0.0025,  0.0030,  0.0033,  0.20,  10.2
2300,407070.400,  39.795514794,-104.870180446, 1589.9807,  1,  8,  0.0070,  0.0058,  0.0152,  0.0027,  0.0030,  0.0033,  0.40,  10.2
2300,407070.600,  39.795514805,-104.870180448, 1589.9824,  1,  8,  0.0070,  0.0059,  0.0152,  0.0029,  0.0030,  0.0034,  0.60,  10.2
2300,407070.800,  39.795514799,-104.870180449, 1589.9838,  1,  8,  0.0071,  0.0059,  0.0152,  0.0026,  0.0032,  0.0034,  0.80,  10.3
2300,407071.000,  39.795514801,-104.870180431, 1589.9848,  1,  8,  0.0070,  0.0057,  0.0151,  0.0024,  0.0031,  0.0034,  0.00,  10.3
2300,407071.200,  39.795514811,-104.870180439, 1589.9870,  1,  8,  0.0071,  0.0059,  0.0151,  0.0029,  0.0031,  0.0033,  0.20,  10.3
2300,407071.400,  39.795514813,-104.870180430, 1589.9880,  1,  8,  0.0070,  0.0057,  0.0152,  0.0026,  0.0032,  0.0033,  0.40,  10.3
2300,407071.600,  39.795514826,-104.870180446, 1589.9887,  1,  8,  0.0072,  0.0057,  0.0152,  0.0026,  0.0030,  0.0033,  0.60,  10.3
2300,407071.800,  39.795514816,-104.870180420, 1589.9859,  1,  8,  0.0070,  0.0059,  0.0153,  0.0026,  0.0030,  0.0035,  0.80,  10.3
2300,407072.000,  39.795514790,-104.870180443, 1589.9835,  1,  8,  0.0070,  0.0058,  0.0151,  0.0027,  0.0030,  0.0032,  0.00,  10.3
2300,407072.200,  39.795514799,-104.870180443, 1589.9797,  1,  8,  0.0070,  0.0059,  0.0151,  0.0026,  0.0030,  0.0033,  0.20,  10.3
2300,407072.400,  39.795514805,-104.870180439, 1589.9794,  1,  8,  0.0070,  0.0059,  0.0152,  0.0028,  0.0030,  0.0034,  0.40,  10.3
2300,407072.600,  39.795514801,-104.870180430, 1589.9817,  1,  8,  0.0071,  0.0058,  0.0152,  0.0027,  0.0031,  0.0032,  0.60,  10.3
2300,407072.800,  39.795514788,-104.870180457, 1589.9800,  1,  8,  0.0072,  0.0058,  0.0153,  0.0026,  0.0029,  0.0033,  0.80,  10.3
2300,407073.000,  39.795514799,-104.870180433, 1589.9842,  1,  8,  0.0070,  0.0057,  0.0151,  0.0027,  0.0030,  0.0032,  0.00,  10.3
2300,407073.200,  39.795514824,-104.870180422, 1589.9829,  1,  8,  0.0071,  0.0057,  0.0151,  0.0026,  0.0030,  0.0032,  0.20,  10.3
2300,407073.400,  39.795514814,-104.870180445, 1589.9841,  1,  8,  0.0070,  0.0057,  0.0152,  0.0026,  0.0029,  0.0034,  0.40,  10.3
2300,407073.600,  39.795514811,-104.870180450, 1589.9844,  1,  8,  0.0070,  0.0059,  0.0152,  0.0028,  0.0030,  0.0034,  0.60,  10.3
2300,407073.800,  39.795514817,-104.870180441, 1589.9843,  1,  8,  0.0070,  0.0059,  0.0153,  0.0027,  0.0029,  0.0033,  0.80,  10.3
2300,407074.000,  39.795514807,-104.870180436, 1589.9825,  1,  8,  0.0070,  0.0057,  0.0151,  0.0026,  0.0031,  0.0033,  0.00,  10.3
2300,407074.200,  39.795514807,-104.870180430, 1589.9839,  1,  8,  0.0071,  0.0058,  0.0151,  0.0026,  0.0029,  0.0031,  0.20,  10.3
2300,407074.400,  39.795514804,-104.870180424, 1589.9844,  1,  8,  0.0070,  0.0058,  0.0151,  0.0026,  0.0030,  0.0033,  0.40,  10.3
2300,407074.600,  39.795514811,-104.870180437, 1589.9818,  1,  8,  0.0071,  0.0058,  0.0152,  0.0027,  0.0027,  0.0032,  0.60,  10.3
2300,407074.800,  39.795514792,-104.870180434, 1589.9847,  1,  8,  0.0071,  0.0059,  0.0152,  0.0025,  0.0031,  0.0032,  0.80,  10.3
2300,407075.000,  39.795514807,-104.870180421, 1589.9831,  1,  8,  0.0071,  0.0057,  0.0151,  0.0025,  0.0031,  0.0032,  0.00,  10.3
2300,407075.200,  39.795514815,-104.870180436, 1589.9826,  1,  8,  0.0070,  0.0058,  0.0151,  0.0027,  0.0030,  0.0033,  0.20,  10.3
2300,407075.400,  39.795514806,-104.870180418, 1589.9839,  1,  8,  0.0071,  0.0057,  0.0152,  0.0025,  0.0029,  0.0033,  0.40,  10.3
2300,407075.600,  39.795514795,-104.870180414, 1589.9835,  1,  8,  0.0071,  0.0057,  0.0152,  0.0026,  0.0031,  0.0034,  0.60,  10.3
2300,407075.800,  39.795514793,-104.870180419, 1589.9837,  1,  8,  0.0071,  0.0059,  0.0153,  0.0026,  0.0030,  0.0033,  0.80,  10.3
2300,407076.000,  39.795514799,-104.870180441, 1589.9794,  1,  8,  0.0071,  0.0057,  0.0151,  0.0028,  0.0029,  0.0031,  0.00,  10.3
2300,407076.200,  39.795514794,-104.870180428, 1589.9804,  1,  8,  0.0069,  0.0059,  0.0151,  0.0028,  0.0031,  0.0033,  0.20,  10.3
2300,407076.400,  39.795514804,-104.870180413, 1589.9821,  1,  8,  0.0070,  0.0058,  0.0152,  0.0026,  0.0031,  0.0032,  0.40,  10.3
2300,407076.600,  39.795514795,-104.870180434, 1589.9827,  1,  8,  0.0071,  0.0058,  0.0152,  0.0027,  0.0030,  0.0032,  0.60,  10.3
2300,407076.800,  39.795514814,-104.870180412, 1589.9808,  1,  8,  0.0070,  0.0057,  0.0153,  0.0027,  0.0029,  0.0033,  0.80,  10.3
2300,407077.000,  39.795514803,-104.870180451, 1589.9847,  1,  8,  0.0070,  0.0057,  0.0151,  0.0028,  0.0028,  0.0033,  0.00,  10.2
2300,407077.200,  39.795514797,-104.870180442, 1589.9813,  1,  8,  0.0070,  0.0058,  0.0151,  0.0025,  0.0031,  0.0033,  0.20,  10.2
2300,407077.400,  39.795514810,-104.870180423, 1589.9789,  1,  8,  0.0071,  0.0059,  0.0152,  0.0026,  0.0030,  0.0032,  0.40,  10.2
2300,407077.600,  39.795514811,-104.870180434, 1589.9814,  1,  8,  0.0071,  0.0059,  0.0152,  0.0026,  0.0030,  0.0032,  0.60,  10.2
2300,407077.800,  39.795514792,-104.870180435, 1589.9816,  1,  8,  0.0071,  0.0059,  0.0153,  0.0025,  0.0031,  0.0033,  0.80,  10.2
2300,407078.000,  39.795514820,-104.870180446, 1589.9816,  1,  8,  0.0072,  0.0059,  0.0151,  0.0025,  0.0030,  0.0031,  0.00,  10.2
2300,407078.200,  39.795514795,-104.870180441, 1589.9825,  1,  8,  0.0071,  0.0060,  0.0151,  0.0027,  0.0029,  0.0032,  0.20,  10.2
2300,407078.400,  39.795514804,-104.870180439, 1589.9797,  1,  8,  0.0070,  0.0059,  0.0152,  0.0025,  0.0031,  0.0033,  0.40,  10.2
2300,407078.600,  39.795514801,-104.870180439, 1589.9807,  1,  8,  0.0070,  0.0058,  0.0152,  0.0028,  0.0031,  0.0032,  0.60,  10.2
2300,407078.800,  39.795514796,-104.870180440, 1589.9818,  1,  8,  0.0071,  0.0058,  0.0153,  0.0026,  0.0030,  0.0032,  0.80,  10.1
2300,407079.000,  39.795514798,-104.870180441, 1589.9821,  1,  8,  0.0071,  0.0057,  0.0151,  0.0026,  0.0029,  0.0032,  0.00,  10.1
2300,407079.200,  39.795514799,-104.870180430, 1589.9775,  1,  8,  0.0070,  0.0058,  0.0151,  0.0027,  0.0032,  0.0032,  0.20,  10.1
2300,407079.400,  39.795514801,-104.870180432, 1589.9787,  1,  8,  0.0071,  0.0058,  0.0151,  0.0025,  0.0031,  0.0032,  0.40,  10.1
2300,407079.600,  39.795514806,-104.870180450, 1589.9762,  1,  8,  0.0072,  0.0058,  0.0152,  0.0026,  0.0031,  0.0031,  0.60,  10.1
2300,407079.800,  39.795514811,-104.870180452, 1589.9771,  1,  8,  0.0071,  0.0059,  0.0152,  0.0027,  0.0032,  0.0033,  0.80,  10.1
2300,407080.000,  39.795514800,-104.870180428, 1589.9795,  1,  8,  0.0070,  0.0058,  0.0151,  0.0027,  0.0030,  0.0033,  0.00,  10.1
2300,407080.200,  39.795514797,-104.870180434, 1589.9802,  1,  8,  0.0070,  0.0061,  0.0151,  0.0028,  0.0030,  0.0034,  0.20,  10.0
2300,407080.400,  39.795514796,-104.870180451, 1589.9809,  1,  8,  0.0072,  0.0059,  0.0152,  0.0027,  0.0031,  0.0033,  0.40,  10.0
2300,407080.600,  39.795514804,-104.870180451, 1589.9805,  1,  8,  0.0071,  0.0060,  0.0152,  0.0023,  0.0031,  0.0032,  0.60,  10.0
2300,407080.800,  39.795514803,-104.870180449, 1589.9766,  1,  8,  0.0071,  0.0058,  0.0153,  0.0025,  0.0030,  0.0032,  0.80,  10.0
2300,407081.000,  39.795514805,-104.870180424, 1589.9811,  1,  8,  0.0069,  0.0059,  0.0151,  0.0029,  0.0031,  0.0033,  0.00,  10.0
2300,407081.200,  39.795514803,-104.870180430, 1589.9830,  1,  8,  0.0071,  0.0059,  0.0151,  0.0027,  0.0033,  0.0031,  0.20,  10.0
2300,407081.400,  39.795514822,-104.870180428, 1589.9833,  1,  8,  0.0071,  0.0058,  0.0152,  0.0025,  0.0030,  0.0032,  0.40,  10.0
2300,407081.600,  39.795514795,-104.870180429, 1589.9804,  1,  8,  0.0071,  0.0060,  0.0152,  0.0028,  0.0029,  0.0033,  0.60,   9.9
2300,407081.800,  39.795514796,-104.870180431, 1589.9822,  1,  8,  0.0071,  0.0058,  0.0152,  0.0027,  0.0029,  0.0033,  0.80,   9.9
2300,407082.000,  39.795514797,-104.870180431, 1589.9790,  1,  8,  0.0070,  0.0058,  0.0151,  0.0027,  0.0033,  0.0033,  0.00,   9.9
2300,407082.200,  39.795514781,-104.870180436, 1589.9809,  1,  8,  0.0070,  0.0058,  0.0152,  0.0027,  0.0029,  0.0032,  0.20,   9.9
2300,407082.400,  39.795514805,-104.870180423, 1589.9812,  1,  8,  0.0071,  0.0058,  0.0152,  0.0025,  0.0029,  0.0034,  0.40,   9.9
2300,407082.600,  39.795514797,-104.870180420, 1589.9842,  1,  8,  0.0071,  0.0059,  0.0152,  0.0026,  0.0030,  0.0033,  0.60,   9.9
2300,407082.800,  39.795514797,-104.870180422, 1589.9803,  1,  8,  0.0071,  0.0059,  0.0153,  0.0025,  0.0029,  0.0033,  0.80,   9.8
2300,407083.000,  39.795514779,-104.870180441, 1589.9797,  1,  8,  0.0071,  0.0058,  0.0151,  0.0026,  0.0031,  0.0032,  0.00,   9.8
2300,407083.200,  39.795514788,-104.870180432, 1589.9823,  1,  8,  0.0070,  0.0059,  0.0152,  0.0027,  0.0030,  0.0034,  0.20,   9.8
2300,407083.400,  39.795514781,-104.870180457, 1589.9818,  1,  8,  0.0070,  0.0059,  0.0151,  0.0027,  0.0032,  0.0033,  0.40,   9.8
2300,407083.600,  39.795514805,-104.870180450, 1589.9810,  1,  8,  0.0071,  0.0058,  0.0152,  0.0026,  0.0031,  0.0032,  0.60,   9.8
2300,407083.800,  39.795514775,-104.870180424, 1589.9839,  1,  8,  0.0070,  0.0059,  0.0153,  0.0027,  0.0029,  0.0033,  0.80,   9.7
2300,407084.000,  39.795514819,-104.870180431, 1589.9832,  1,  8,  0.0071,  0.0058,  0.0151,  0.0024,  0.0029,  0.0033,  0.00,   9.7
2300,407084.200,  39.795514805,-104.870180435, 1589.9827,  1,  8,  0.0069,  0.0058,  0.0151,  0.0026,  0.0030,  0.0033,  0.20,   9.7
2300,407084.400,  39.795514823,-104.870180438, 1589.9856,  1,  8,  0.0071,  0.0059,  0.0152,  0.0025,  0.0031,  0.0032,  0.40,   9.7
2300,407084.600,  39.795514820,-104.870180426, 1589.9802,  1,  8,  0.0070,  0.0058,  0.0152,  0.0028,  0.0029,  0.0034,  0.60,   9.7
2300,407084.800,  39.795514800,-104.870180410, 1589.9791,  1,  8,  0.0071,  0.0059,  0.0153,  0.0026,  0.0029,  0.0033,  0.80,   9.7
2300,407085.000,  39.795514807,-104.870180432, 1589.9768,  1,  8,  0.0070,  0.0058,  0.0151,  0.0027,  0.0030,  0.0033,  0.00,   9.7
2300,407085.200,  39.795514791,-104.870180439, 1589.9789,  1,  8,  0.0070,  0.0058,  0.0151,  0.0025,  0.0029,  0.0032,  0.20,   9.7
2300,407085.400,  39.795514812,-104.870180425, 1589.9792,  1,  8,  0.0070,  0.0058,  0.0151,  0.0029,  0.0031,  0.0033,  0.40,   9.7
2300,407085.600,  39.795514788,-104.870180442, 1589.9811,  1,  8,  0.0071,  0.0059,  0.0152,  0.0027,  0.0030,  0.0033,  0.60,   9.7
2300,407085.800,  39.795514808,-104.870180412, 1589.9813,  1,  8,  0.0071,  0.0060,  0.0152,  0.0027,  0.0031,  0.0032,  0.80,   9.7
2300,407086.000,  39.795514805,-104.870180419, 1589.9874,  1,  8,  0.0070,  0.0058,  0.0151,  0.0025,  0.0030,  0.0033,  0.00,   9.7
2300,407086.200,  39.795514815,-104.870180412, 1589.9830,  1,  8,  0.0070,  0.0057,  0.0151,  0.0028,  0.0029,  0.0033,  0.20,   9.7
2300,407086.400,  39.795514815,-104.870180420, 1589.9833,  1,  8,  0.0069,  0.0060,  0.0152,  0.0027,  0.0030,  0.0033,  0.40,   9.7
2300,407086.600,  39.795514797,-104.870180429, 1589.9822,  1,  8,  0.0071,  0.0058,  0.0152,  0.0028,  0.0030,  0.0033,  0.60,   9.7
2300,407086.800,  39.795514788,-104.870180431, 1589.9815,  1,  8,  0.0071,  0.0059,  0.0153,  0.0027,  0.0031,  0.0032,  0.80,   9.7
2300,407087.000,  39.795514775,-104.870180442, 1589.9812,  1,  8,  0.0071,  0.0058,  0.0151,  0.0026,  0.0030,  0.0031,  0.00,   9.7
2300,407087.200,  39.795514833,-104.870180463, 1589.9810,  1,  8,  0.0070,  0.0058,  0.0151,  0.0025,  0.0031,  0.0033,  0.20,   9.7
2300,407087.400,  39.795514803,-104.870180448, 1589.9776,  1,  8,  0.0071,  0.0057,  0.0152,  0.0025,  0.0030,  0.0031,  0.40,   9.7
2300,407087.600,  39.795514804,-104.870180450, 1589.9761,  1,  8,  0.0072,  0.0059,  0.0152,  0.0022,  0.0028,  0.0032,  0.60,   9.7
2300,407087.800,  39.795514789,-104.870180456, 1589.9761,  1,  8,  0.0071,  0.0059,  0.0153,  0.0025,  0.0030,  0.0033,  0.80,   9.7
2300,407088.000,  39.795514805,-104.870180424, 1589.9780,  1,  8,  0.0070,  0.0058,  0.0151,  0.0026,  0.0030,  0.0033,  0.00,   9.7
2300,407088.200,  39.795514804,-104.870180423, 1589.9761,  1,  8,  0.0071,  0.0059,  0.0151,  0.0025,  0.0031,  0.0030,  0.20,   9.7
2300,407088.400,  39.795514791,-104.870180428, 1589.9754,  1,  8,  0.0070,  0.0059,  0.0151,  0.0027,  0.0030,  0.0033,  0.40,   9.7
2300,407088.600,  39.795514803,-104.870180422, 1589.9741,  1,  8,  0.0071,  0.0060,  0.0152,  0.0024,  0.0031,  0.0033,  0.60,   9.7
2300,407088.800,  39.795514795,-104.870180441, 1589.9731,  1,  8,  0.0071,  0.0059,  0.0153,  0.0026,  0.0031,  0.0033,  0.80,   9.7
2300,407089.000,  39.795514791,-104.870180425, 1589.9810,  1,  8,  0.0071,  0.0056,  0.0151,  0.0025,  0.0029,  0.0031,  0.00,   9.7
2300,407089.200,  39.795514804,-104.870180424, 1589.9797,  1,  8,  0.0070,  0.0057,  0.0151,  0.0027,  0.0032,  0.0033,  0.20,   9.7
2300,407089.400,  39.795514808,-104.870180421, 1589.9822,  1,  8,  0.0070,  0.0058,  0.0151,  0.0026,  0.0031,  0.0033,  0.40,   9.7
2300,407089.600,  39.795514807,-104.870180435, 1589.9802,  1,  8,  0.0071,  0.0057,  0.0152,  0.0027,  0.0031,  0.0033,  0.60,   9.7
2300,407089.800,  39.795514801,-104.870180436, 1589.9799,  1,  8,  0.0072,  0.0059,  0.0153,  0.0026,  0.0031,  0.0032,  0.80,   9.7
2300,407090.000,  39.795514772,-104.870180420, 1589.9790,  1,  8,  0.0071,  0.0057,  0.0151,  0.0024,  0.0029,  0.0031,  0.00,   9.7
2300,407090.200,  39.795514778,-104.870180416, 1589.9784,  1,  8,  0.0070,  0.0058,  0.0151,  0.0027,  0.0030,  0.0032,  0.20,   9.7
2300,407090.400,  39.795514799,-104.870180413, 1589.9784,  1,  8,  0.0070,  0.0057,  0.0152,  0.0026,  0.0030,  0.0032,  0.40,   9.7
2300,407090.600,  39.795514785,-104.870180400, 1589.9771,  1,  8,  0.0071,  0.0058,  0.0152,  0.0026,  0.0031,  0.0032,  0.60,   9.7
2300,407090.800,  39.795514776,-104.870180415, 1589.9768,  1,  8,  0.0071,  0.0059,  0.0153,  0.0027,  0.0029,  0.0033,  0.80,   9.7
2300,407091.000,  39.795514781,-104.870180406, 1589.9787,  1,  8,  0.0070,  0.0059,  0.0151,  0.0026,  0.0029,  0.0032,  0.00,   9.7
2300,407091.200,  39.795514793,-104.870180409, 1589.9771,  1,  8,  0.0071,  0.0058,  0.0151,  0.0024,  0.0029,  0.0032,  0.20,   9.8
2300,407091.400,  39.795514771,-104.870180416, 1589.9780,  1,  8,  0.0069,  0.0058,  0.0152,  0.0028,  0.0028,  0.0033,  0.40,   9.8
2300,407091.600,  39.795514781,-104.870180401, 1589.9753,  1,  8,  0.0070,  0.0059,  0.0152,  0.0027,  0.0030,  0.0033,  0.60,   9.8
2300,407091.800,  39.795514744,-104.870180400, 1589.9718,  1,  8,  0.0071,  0.0059,  0.0152,  0.0026,  0.0029,  0.0032,  0.80,   9.8
2300,407092.000,  39.795514760,-104.870180431, 1589.9731,  1,  8,  0.0070,  0.0059,  0.0151,  0.0026,  0.0031,  0.0033,  0.00,   9.8
2300,407092.200,  39.795514755,-104.870180403, 1589.9741,  1,  8,  0.0069,  0.0059,  0.0151,  0.0026,  0.0031,  0.0033,  0.20,   9.8
2300,407092.400,  39.795514752,-104.870180450, 1589.9728,  1,  8,  0.0071,  0.0057,  0.0151,  0.0025,  0.0028,  0.0032,  0.40,   9.8
2300,407092.600,  39.795514754,-104.870180407, 1589.9731,  1,  8,  0.0070,  0.0058,  0.0152,  0.0025,  0.0031,  0.0032,  0.60,   9.8
2300,407092.800,  39.795514732,-104.870180422, 1589.9760,  1,  8,  0.0071,  0.0059,  0.0153,  0.0027,  0.0031,  0.0034,  0.80,   9.8
2300,407093.000,  39.795514765,-104.870180420, 1589.9685,  1,  8,  0.0070,  0.0057,  0.0151,  0.0028,  0.0030,  0.0032,  0.00,   9.8
2300,407093.200,  39.795514773,-104.870180428, 1589.9749,  1,  8,  0.0070,  0.0058,  0.0151,  0.0024,  0.0031,  0.0033,  0.20,   9.8
2300,407093.400,  39.795514767,-104.870180419, 1589.9710,  1,  8,  0.0071,  0.0058,  0.0152,  0.0024,  0.0030,  0.0032,  0.40,   9.8
2300,407093.600,  39.795514769,-104.870180417, 1589.9705,  1,  8,  0.0070,  0.0058,  0.0152,  0.0027,  0.0029,  0.0033,  0.60,   9.8
2300,407093.800,  39.795514765,-104.870180396, 1589.9698,  1,  8,  0.0071,  0.0059,  0.0153,  0.0027,  0.0031,  0.0033,  0.80,   9.8
2300,407094.000,  39.795514757,-104.870180420, 1589.9729,  1,  8,  0.0071,  0.0058,  0.0151,  0.0025,  0.0030,  0.0033,  0.00,   9.8
2300,407094.200,  39.795514745,-104.870180418, 1589.9698,  1,  8,  0.0070,  0.0059,  0.0151,  0.0027,  0.0031,  0.0032,  0.20,   9.8
2300,407094.400,  39.795514748,-104.870180414, 1589.9742,  1,  8,  0.0069,  0.0058,  0.0152,  0.0027,  0.0029,  0.0033,  0.40,   9.8
2300,407094.600,  39.795514747,-104.870180419, 1589.9734,  1,  8,  0.0072,  0.0058,  0.0152,  0.0027,  0.0028,  0.0030,  0.60,   9.8
2300,407094.800,  39.795514740,-104.870180401, 1589.9745,  1,  8,  0.0071,  0.0058,  0.0153,  0.0026,  0.0029,  0.0032,  0.80,   9.9
2300,407095.000,  39.795514769,-104.870180421, 1589.9679,  1,  8,  0.0070,  0.0056,  0.0151,  0.0025,  0.0029,  0.0032,  0.00,   9.9
2300,407095.200,  39.795514775,-104.870180405, 1589.9706,  1,  8,  0.0071,  0.0058,  0.0151,  0.0024,  0.0028,  0.0032,  0.20,   9.9
2300,407095.400,  39.795514768,-104.870180395, 1589.9727,  1,  8,  0.0071,  0.0060,  0.0152,  0.0026,  0.0030,  0.0032,  0.40,   9.9
2300,407095.600,  39.795514747,-104.870180421, 1589.9739,  1,  8,  0.0071,  0.0059,  0.0152,  0.0024,  0.0030,  0.0032,  0.60,   9.9
2300,407095.800,  39.795514738,-104.870180410, 1589.9683,  1,  8,  0.0071,  0.0059,  0.0152,  0.0027,  0.0030,  0.0032,  0.80,   9.9
2300,407096.000,  39.795514750,-104.870180424, 1589.9737,  1,  8,  0.0070,  0.0059,  0.0151,  0.0024,  0.0030,  0.0033,  0.00,   9.9
2300,407096.200,  39.795514746,-104.870180433, 1589.9755,  1,  8,  0.0070,  0.0059,  0.0151,  0.0027,  0.0030,  0.0033,  0.20,   9.9
2300,407096.400,  39.795514739,-104.870180409, 1589.9711,  1,  8,  0.0070,  0.0057,  0.0151,  0.0023,  0.0030,  0.0033,  0.40,  10.0
2300,407096.600,  39.795514724,-104.870180424, 1589.9748,  1,  8,  0.0071,  0.0058,  0.0152,  0.0024,  0.0031,  0.0031,  0.60,  10.0
2300,407096.800,  39.795514758,-104.870180389, 1589.9712,  1,  8,  0.0071,  0.0058,  0.0153,  0.0025,  0.0030,  0.0032,  0.80,  10.0
2300,407097.000,  39.795514765,-104.870180432, 1589.9725,  1,  8,  0.0070,  0.0058,  0.0151,  0.0026,  0.0029,  0.0032,  0.00,  10.0
